$GLGSV,2,1,08,85,65,312,27,75,602,12,19,11,081,13*7C
$GLGSV,2,1,08,85,65,312,28,75,62,264,31,84,37,045,28,74,31,185,21*63
$GLGSV,2,2,08,76,30,324,25,86,20,258,19,68,14,030,,70,03,132,*6A
$GNRMC,005713.000,A,4434.1767,N,12316.5189,W,0.38,85.59,100518,,,A*57
$GNGGA,005714.000,4434.1767,N,12316.5189,W,1,9,1.16,71.9,M,-21.0,M,,*4B
$GNGLL,4434.1767,N,12316.5189,W,005714.000,A,A*50
$GPGSA,A,3,05,25,02,29,12,,,,,,,,1.44,1.16,0.86*03
$GLGSA,A,3,75,84,85,76,,,,,,,,,1.44,1.16,0.86*15
$GPGSV,3,1,11,12,75,154,29,02,71,066,17,25,57,304,26,51,36,157,*77
$GPGSV,3,2,11,29,31,279,15,06,28,049,15,05,27,142,31,31,14,321,18*77
$GPGSV,3,3,11,24,13,202,12,19,11,081,13,13,,,17*79
$GLGSV,2,1,08,85,65,312,28,75,62,264,30,84,37,045,27,74,31,185,21*6D
$GLGSV,2,2,08,76,30,324,25,86,20,258,18,68,14,030,,70,03,132,*6B
$GNRMC,005714.000,A,4434.1767,N,12316.5189,W,0.39,55.13,100518,,,A*52
$GNGGA,005715.000,4434.1770,N,12316.5187,W,1,9,1.15,71.8,M,-21.0,M,,*40
$GNGLL,4434.1770,N,12316.5187,W,005715.000,A,A*59
$GPGSA,A,3,05,25,02,29,12,,,,,,,,1.44,1.15,0.86*00
$GLGSA,A,3,75,84,85,76,,,,,,,,,1.44,1.15,0.86*16
$GPGSV,3,1,11,12,75,154,28,02,70,064,17,25,57,304,25,51,36,157,*76
$GPGSV,3,2,11,29,31,279,14,06,28,049,16,05,27,142,31,31,14,321,17*7A
$GPGSV,3,3,11,24,13,202,,19,11,081,13,13,,,16*7B
$GLGSV,2,1,08,85,65,312,28,75,62,264,30,84,37,045,27,74,31,185,21*6D
$GLGSV,2,2,08,76,30,324,25,86,20,258,18,68,14,030,,70,03,132,*6B
$GNRMC,005715.000,A,4434.1770,N,12316.5187,W,0.41,29.52,100518,,,A*5A
$GNGGA,005716.000,4434.1774,N,12316.5184,W,1,10,1.02,71.8,M,-21.0,M,,*7A
$GNGLL,4434.1774,N,12316.5184,W,005716.000,A,A*5D
$GPGSA,A,3,05,06,25,02,29,12,,,,,,,1.33,1.02,0.85*03
$GLGSA,A,3,75,84,85,76,,,,,,,,,1.33,1.02,0.85*13
$GPGSV,3,1,11,12,75,154,28,02,70,064,17,25,57,304,25,51,36,157,*76
$GPGSV,3,2,11,29,31,279,14,06,28,049,18,05,27,142,31,31,14,321,17*74
$GPGSV,3,3,11,24,13,202,,19,11,081,13,13,,,18*75
$GLGSV,2,1,08,85,65,312,28,75,62,264,29,84,37,045,27,74,31,185,21*65
$GLGSV,2,2,08,76,30,324,24,86,20,258,18,68,14,030,,70,03,132,*6A
$GNRMC,005716.000,A,4434.1774,N,12316.5184,W,0.45,22.44,100518,,,A*56
$GNGGA,005717.000,4434.1776,N,12316.5182,W,1,10,1.02,71.7,M,-21.0,M,,*70
$GNGLL,4434.1776,N,12316.5182,W,005717.000,A,A*58
$GPGSA,A,3,05,06,25,02,29,12,,,,,,,1.33,1.02,0.85*03
$GLGSA,A,3,75,84,85,76,,,,,,,,,1.33,1.02,0.85*13
$GPGSV,3,1,11,12,75,154,27,02,70,064,17,25,57,304,25,29,31,279,15*7A
$GPGSV,3,2,11,06,28,049,19,05,27,142,31,31,14,321,17,24,13,202,*71
$GPGSV,3,3,11,19,11,081,13,34,,,,13,,,18*46
$GLGSV,2,1,08,85,65,312,28,75,62,264,29,84,37,045,27,74,31,185,22*66
$GLGSV,2,2,08,76,30,324,24,86,20,258,17,68,14,030,,70,03,132,*65
$GNRMC,005717.000,A,4434.1776,N,12316.5182,W,0.51,293.25,100518,,,A*69
$GNGGA,005718.000,4434.1777,N,12316.5184,W,1,10,1.02,71.7,M,-21.0,M,,*78
$GNGLL,4434.1777,N,12316.5184,W,005718.000,A,A*50
$GPGSA,A,3,05,06,25,02,29,12,,,,,,,1.33,1.02,0.85*03
$GLGSA,A,3,75,84,85,76,,,,,,,,,1.33,1.02,0.85*13
$GPGSV,3,1,11,12,75,154,27,02,70,064,17,25,57,304,25,29,31,279,16*79
$GPGSV,3,2,11,05,28,141,31,06,28,049,17,31,14,321,17,24,13,202,*73
$GPGSV,3,3,11,19,11,081,13,34,,,,13,,,18*46
$GLGSV,2,1,08,85,65,312,28,75,62,264,29,84,37,045,27,74,31,185,22*66
$GLGSV,2,2,08,76,30,324,24,86,20,258,17,68,14,030,,70,03,132,*65
$GNRMC,005718.000,A,4434.1777,N,12316.5184,W,0.52,290.29,100518,,,A*6D
$GNGGA,005719.000,4434.1779,N,12316.5180,W,1,10,1.02,71.7,M,-21.0,M,,*73
$GNGLL,4434.1779,N,12316.5180,W,005719.000,A,A*5B
$GPGSA,A,3,05,06,25,02,29,12,,,,,,,1.33,1.02,0.85*03
$GLGSA,A,3,75,84,85,76,,,,,,,,,1.33,1.02,0.85*13
$GPGSV,3,1,11,12,75,154,27,02,70,064,17,25,57,304,25,29,31,279,17*78
$GPGSV,3,2,11,05,28,141,31,06,27,049,16,31,14,321,17,24,13,202,*7D
$GPGSV,3,3,11,19,11,081,13,34,,,,13,,,18*46
$GLGSV,2,1,08,85,65,312,28,75,62,264,29,84,37,045,27,74,31,185,22*66
$GLGSV,2,2,08,76,30,324,24,86,20,258,17,68,14,030,,70,03,132,*65
$GNRMC,005719.000,A,4434.1779,N,12316.5180,W,0.50,313.36,100518,,,A*60
$GNGGA,005720.000,4434.1779,N,12316.5174,W,1,10,1.02,71.6,M,-21.0,M,,*73
$GNGLL,4434.1779,N,12316.5174,W,005720.000,A,A*5A
$GPGSA,A,3,05,06,25,02,29,12,,,,,,,1.33,1.02,0.85*03
$GLGSA,A,3,75,84,85,76,,,,,,,,,1.33,1.02,0.85*13
$GPGSV,3,1,11,12,75,154,27,02,70,064,17,25,57,304,26,29,31,279,18*74
$GPGSV,3,2,11,05,28,141,32,06,27,049,16,31,14,321,17,24,13,202,*7E
$GPGSV,3,3,11,19,11,081,13,34,,,,13,,,18*46
$GLGSV,2,1,08,85,65,312,27,75,62,264,29,84,37,045,27,74,31,185,22*69
$GLGSV,2,2,08,76,30,324,24,86,20,258,17,68,14,030,,70,03,132,*65
$GNRMC,005720.000,A,4434.1779,N,12316.5174,W,0.47,87.35,100518,,,A*5A
$GNGGA,005721.000,4434.1780,N,12316.5169,W,1,10,1.02,71.5,M,-21.0,M,,*7B
$GNGLL,4434.1780,N,12316.5169,W,005721.000,A,A*51
$GPGSA,A,3,05,06,25,02,29,12,,,,,,,1.33,1.02,0.85*03
$GLGSA,A,3,75,84,85,76,,,,,,,,,1.33,1.02,0.85*13
$GPGSV,3,1,11,12,75,154,27,02,70,064,18,25,57,304,26,29,31,279,18*7B
$GPGSV,3,2,11,05,28,141,33,06,27,049,16,31,14,321,17,24,13,202,*7F
$GPGSV,3,3,11,19,11,081,13,34,,,,13,,,18*46
$GLGSV,2,1,08,85,65,312,27,75,62,264,29,84,37,045,27,74,31,185,21*6A
$GLGSV,2,2,08,76,30,324,24,86,20,258,17,68,14,030,,70,03,132,*65
$GNRMC,005721.000,A,4434.1780,N,12316.5169,W,0.45,103.84,100518,,,A*64
$GNGGA,005722.000,4434.1779,N,12316.5167,W,1,10,1.02,71.5,M,-21.0,M,,*70
$GNGLL,4434.1779,N,12316.5167,W,005722.000,A,A*5A
$GPGSA,A,3,05,06,25,02,29,12,,,,,,,1.33,1.02,0.85*03
$GLGSA,A,3,75,84,85,76,,,,,,,,,1.33,1.02,0.85*13
$GPGSV,3,1,11,12,75,154,27,02,70,064,18,25,57,304,26,29,31,279,18*7B
$GPGSV,3,2,11,05,28,141,33,06,27,049,16,31,14,321,16,24,13,202,*7E
$GPGSV,3,3,11,19,11,081,13,34,,,,13,,,18*46
$GLGSV,2,1,08,85,65,312,27,75,62,264,29,84,37,045,27,74,31,185,22*69
$GLGSV,2,2,08,76,30,324,24,86,20,258,17,68,14,030,,70,03,132,*65
$GNRMC,005722.000,A,4434.1779,N,12316.5167,W,0.43,134.78,100518,,,A*6E
$GNGGA,005723.000,4434.1776,N,12316.5167,W,1,10,1.02,71.4,M,-21.0,M,,*7F
$GNGLL,4434.1776,N,12316.5167,W,005723.000,A,A*54
$GPGSA,A,3,05,06,25,02,29,12,,,,,,,1.33,1.02,0.85*03
$GLGSA,A,3,75,84,85,76,,,,,,,,,1.33,1.02,0.85*13
$GPGSV,3,1,11,12,75,154,26,02,70,064,18,25,57,304,26,29,31,279,18*7A
$GPGSV,3,2,11,05,28,141,33,06,27,049,16,31,14,321,16,24,13,202,*7E
$GPGSV,3,3,11,19,11,081,13,35,,,,13,,,17*48
$GLGSV,2,1,08,85,65,312,27,75,62,264,29,84,37,045,27,74,31,185,21*6A
$GLGSV,2,2,08,76,30,324,23,86,20,258,16,68,14,030,,70,03,132,*63
$GNRMC,005723.000,A,4434.1776,N,12316.5167,W,0.46,156.24,100518,,,A*68
$GNGGA,005724.000,4434.1777,N,12316.5166,W,1,11,0.94,71.4,M,-21.0,M,,*77
$GNGLL,4434.1777,N,12316.5166,W,005724.000,A,A*53
$GPGSA,A,3,05,06,25,02,29,12,,,,,,,1.26,0.94,0.83*0F
$GLGSA,A,3,75,84,85,68,76,,,,,,,,1.26,0.94,0.83*11
$GPGSV,3,1,11,12,75,154,27,02,70,064,18,25,57,304,26,29,31,279,18*7B
$GPGSV,3,2,11,05,28,141,33,06,27,049,17,31,14,321,16,24,13,202,*7F
$GPGSV,3,3,11,19,11,081,12,35,,,,13,,,18*46
$GLGSV,2,1,08,85,65,312,28,75,62,264,29,84,37,045,27,74,31,185,21*65
$GLGSV,2,2,08,76,30,324,23,86,20,258,,68,14,030,25,70,03,132,*63
$GNRMC,005724.000,A,4434.1777,N,12316.5166,W,0.46,152.35,100518,,,A*6B
$GNGGA,005725.000,4434.1777,N,12316.5166,W,1,10,1.02,71.4,M,-21.0,M,,*79
$GNGLL,4434.1777,N,12316.5166,W,005725.000,A,A*52
$GPGSA,A,3,05,06,25,02,29,12,,,,,,,1.33,1.02,0.85*03
$GLGSA,A,3,75,84,85,76,,,,,,,,,1.33,1.02,0.85*13
$GPGSV,3,1,11,12,74,154,27,02,70,064,18,25,57,304,26,29,31,279,17*75
$GPGSV,3,2,11,05,28,141,33,06,27,049,18,31,14,321,16,24,13,202,*70
$GPGSV,3,3,11,19,11,081,12,35,,,,13,,,18*46
$GLGSV,2,1,08,85,65,312,27,75,62,264,29,84,37,045,27,74,31,185,21*6A
$GLGSV,2,2,08,76,30,324,23,86,20,258,,68,14,030,,70,03,132,*64
$GNRMC,005725.000,A,4434.1777,N,12316.5166,W,0.44,41.82,100518,,,A*57
$GNGGA,005726.000,4434.1777,N,12316.5165,W,1,10,1.02,71.4,M,-21.0,M,,*79
$GNGLL,4434.1777,N,12316.5165,W,005726.000,A,A*52
$GPGSA,A,3,05,06,25,02,29,12,,,,,,,1.33,1.02,0.85*03
$GLGSA,A,3,75,84,85,76,,,,,,,,,1.33,1.02,0.85*13
$GPGSV,3,1,11,12,74,154,27,02,70,064,18,25,57,304,26,29,31,279,16*74
$GPGSV,3,2,11,05,28,141,33,06,27,049,18,31,14,321,15,24,13,202,15*77
$GPGSV,3,3,11,19,11,081,12,35,,,,13,,,18*46
$GLGSV,2,1,08,85,65,312,28,75,62,264,29,84,37,045,28,74,31,185,20*6B
$GLGSV,2,2,08,76,30,324,23,86,20,258,,68,14,030,,70,03,132,*64
$GNRMC,005726.000,A,4434.1777,N,12316.5165,W,0.43,67.92,100518,,,A*55
$GNGGA,005727.000,4434.1778,N,12316.5164,W,1,10,1.02,71.4,M,-21.0,M,,*76
$GNGLL,4434.1778,N,12316.5164,W,005727.000,A,A*5D
$GPGSA,A,3,05,06,25,02,29,12,,,,,,,1.33,1.02,0.85*03
$GLGSA,A,3,75,84,85,76,,,,,,,,,1.33,1.02,0.85*13
$GPGSV,3,1,11,12,74,154,26,02,70,064,18,25,57,304,26,29,31,279,15*76
$GPGSV,3,2,11,05,28,141,33,06,27,049,18,31,14,321,14,24,13,202,15*76
$GPGSV,3,3,11,19,11,081,12,35,,,,13,,,18*46
$GLGSV,2,1,08,85,65,312,28,75,62,264,30,84,37,045,28,74,31,185,19*69
$GLGSV,2,2,08,76,30,324,23,86,20,258,,68,14,030,,70,03,132,*64
$GNRMC,005727.000,A,4434.1778,N,12316.5164,W,0.38,51.18,100518,,,A*51
$GNGGA,005728.000,4434.1776,N,12316.5164,W,1,10,1.02,71.3,M,-21.0,M,,*70
$GNGLL,4434.1776,N,12316.5164,W,005728.000,A,A*5C
$GPGSA,A,3,05,06,25,02,29,12,,,,,,,1.33,1.02,0.85*03
$GLGSA,A,3,75,84,85,76,,,,,,,,,1.33,1.02,0.85*13
$GPGSV,3,1,11,12,74,154,26,02,70,064,18,25,57,304,25,29,31,279,15*75
$GPGSV,3,2,11,05,28,141,33,06,27,049,18,31,14,321,14,24,13,202,15*76
$GPGSV,3,3,11,19,11,081,,35,,,,13,,,18*45
$GLGSV,2,1,08,85,65,312,28,75,62,264,30,84,37,045,28,74,31,185,19*69
$GLGSV,2,2,08,76,30,324,23,86,20,258,,68,14,030,,70,03,132,*64
$GNRMC,005728.000,A,4434.1776,N,12316.5164,W,0.34,114.41,100518,,,A*60
$GNGGA,005729.000,4434.1778,N,12316.5163,W,1,10,1.02,71.3,M,-21.0,M,,*78
$GNGLL,4434.1778,N,12316.5163,W,005729.000,A,A*54
$GPGSA,A,3,05,06,25,02,29,12,,,,,,,1.33,1.02,0.85*03
$GLGSA,A,3,75,84,85,76,,,,,,,,,1.33,1.02,0.85*13
$GPGSV,3,1,11,12,74,154,26,02,70,064,17,25,57,304,25,29,31,279,15*7A
$GPGSV,3,2,11,05,28,141,33,06,27,049,17,31,14,321,14,24,13,202,14*78
$GPGSV,3,3,11,19,11,081,,36,,,,13,,,18*46
$GLGSV,2,1,08,85,65,312,28,75,62,264,30,84,37,045,29,74,31,185,19*68
$GLGSV,2,2,08,76,30,324,23,86,20,258,,68,14,030,,70,03,132,*64
$GNRMC,005729.000,A,4434.1778,N,12316.5163,W,0.35,10.78,100518,,,A*56
$GNGGA,005730.000,4434.1780,N,12316.5162,W,1,10,1.02,71.2,M,-21.0,M,,*77
$GNGLL,4434.1780,N,12316.5162,W,005730.000,A,A*5A
$GPGSA,A,3,05,06,25,02,29,12,,,,,,,1.33,1.02,0.85*03
$GLGSA,A,3,75,84,85,76,,,,,,,,,1.33,1.02,0.85*13
$GPGSV,3,1,10,12,74,154,26,02,70,064,16,25,57,304,25,29,31,279,15*7A
$GPGSV,3,2,10,05,28,141,33,06,27,049,17,31,14,321,14,24,13,202,14*79
$GPGSV,3,3,10,19,11,081,,36,,,*4C
$GLGSV,2,1,08,85,65,312,28,75,62,264,30,84,37,045,29,74,31,185,19*68
$GLGSV,2,2,08,76,30,324,23,86,20,258,,68,14,030,,70,03,132,*64
$GNRMC,005730.000,A,4434.1780,N,12316.5162,W,0.43,56.83,100518,,,A*5F
$GNGGA,005731.000,4434.1780,N,12316.5161,W,1,10,1.02,71.2,M,-21.0,M,,*75
$GNGLL,4434.1780,N,12316.5161,W,005731.000,A,A*58
$GPGSA,A,3,05,06,25,02,29,12,,,,,,,1.33,1.02,0.85*03
$GLGSA,A,3,75,84,85,76,,,,,,,,,1.33,1.02,0.85*13
$GPGSV,3,1,10,12,74,154,25,02,70,064,16,25,57,304,25,29,31,279,14*78
$GPGSV,3,2,10,05,28,141,33,06,27,049,17,31,14,321,13,24,13,202,14*7E
$GPGSV,3,3,10,19,11,081,,36,,,*4C
$GLGSV,2,1,08,85,65,312,29,75,62,264,29,84,37,045,29,74,31,185,19*61
$GLGSV,2,2,08,76,30,324,23,86,20,258,,68,14,030,,70,03,132,*64
$GNRMC,005731.000,A,4434.1780,N,12316.5161,W,0.45,61.42,100518,,,A*52
$GNGGA,005732.000,4434.1781,N,12316.5159,W,1,10,1.02,71.2,M,-21.0,M,,*7C
$GNGLL,4434.1781,N,12316.5159,W,005732.000,A,A*51
$GPGSA,A,3,05,06,25,02,29,12,,,,,,,1.33,1.02,0.85*03
$GLGSA,A,3,75,84,85,76,,,,,,,,,1.33,1.02,0.85*13
$GPGSV,3,1,11,12,74,154,25,02,70,064,17,25,57,304,25,29,31,279,15*79
$GPGSV,3,2,11,05,28,141,34,06,27,049,18,31,14,321,13,24,13,202,14*77
$GPGSV,3,3,11,19,10,081,,36,,,,13,,,18*47
$GLGSV,2,1,08,85,65,312,28,75,62,264,28,84,37,045,29,74,31,185,19*61
$GLGSV,2,2,08,76,30,324,23,86,20,258,14,68,14,030,,70,03,132,*61
$GNRMC,005732.000,A,4434.1781,N,12316.5159,W,0.48,47.07,100518,,,A*53
$GNGGA,005733.000,4434.1780,N,12316.5160,W,1,10,1.02,71.2,M,-21.0,M,,*76
$GNGLL,4434.1780,N,12316.5160,W,005733.000,A,A*5B
$GPGSA,A,3,05,06,25,02,29,12,,,,,,,1.33,1.02,0.85*03
$GLGSA,A,3,75,84,85,76,,,,,,,,,1.33,1.02,0.85*13
$GPGSV,3,1,11,12,74,154,25,02,70,064,17,25,57,304,25,29,31,279,16*7A
$GPGSV,3,2,11,05,28,141,33,06,27,049,19,31,14,321,13,24,13,202,14*71
$GPGSV,3,3,11,19,10,081,,36,,,,13,,,16*49
$GLGSV,2,1,08,85,65,312,28,75,62,264,27,84,37,045,29,74,31,185,19*6E
$GLGSV,2,2,08,76,30,324,24,86,20,258,14,68,14,030,,70,03,132,*66
$GNRMC,005733.000,A,4434.1780,N,12316.5160,W,0.47,68.14,100518,,,A*59
$GNGGA,005734.000,4434.1782,N,12316.5161,W,1,10,1.02,71.1,M,-21.0,M,,*71
$GNGLL,4434.1782,N,12316.5161,W,005734.000,A,A*5F
$GPGSA,A,3,05,06,25,02,29,12,,,,,,,1.33,1.02,0.85*03
$GLGSA,A,3,75,84,85,76,,,,,,,,,1.33,1.02,0.85*13
$GPGSV,3,1,11,12,74,154,24,02,70,064,17,25,57,304,25,29,31,279,17*7A
$GPGSV,3,2,11,05,28,141,33,06,27,049,19,31,14,321,13,24,13,202,14*71
$GPGSV,3,3,11,19,10,081,,36,,,,13,,,17*48
$GLGSV,2,1,08,85,65,312,28,75,62,264,28,84,37,045,29,74,31,185,19*61
$GLGSV,2,2,08,76,30,324,24,86,20,258,14,68,14,030,,70,03,132,*66
$GNRMC,005734.000,A,4434.1782,N,12316.5161,W,0.49,21.75,100518,,,A*59
$GNGGA,005735.000,4434.1780,N,12316.5159,W,1,10,1.02,71.1,M,-21.0,M,,*79
$GNGLL,4434.1780,N,12316.5159,W,005735.000,A,A*57
$GPGSA,A,3,05,06,25,02,29,12,,,,,,,1.33,1.02,0.85*03
$GLGSA,A,3,75,84,85,76,,,,,,,,,1.33,1.02,0.85*13
$GPGSV,3,1,11,12,74,154,23,02,70,064,17,25,57,304,25,29,31,279,17*7D
$GPGSV,3,2,11,05,28,141,33,06,27,049,19,31,14,321,13,24,13,202,14*71
$GPGSV,3,3,11,19,10,081,,38,,,,13,,,18*49
$GLGSV,2,1,08,85,65,312,29,75,62,264,28,84,37,045,29,74,31,185,19*60
$GLGSV,2,2,08,76,30,324,24,86,20,258,,68,14,030,,70,03,132,*63
$GNRMC,005735.000,A,4434.1780,N,12316.5159,W,0.49,62.22,100518,,,A*54
$GNGGA,005736.000,4434.1780,N,12316.5159,W,1,10,1.02,71.0,M,-21.0,M,,*7B
$GNGLL,4434.1780,N,12316.5159,W,005736.000,A,A*54
$GPGSA,A,3,05,06,25,02,29,12,,,,,,,1.33,1.02,0.85*03
$GLGSA,A,3,75,84,85,76,,,,,,,,,1.33,1.02,0.85*13
$GPGSV,3,1,11,12,74,154,23,02,70,064,17,25,57,304,25,29,31,279,16*7C
$GPGSV,3,2,11,05,28,141,33,06,27,049,19,31,14,321,,24,13,202,14*73
$GPGSV,3,3,11,19,10,081,,38,,,,13,,,18*49
$GLGSV,2,1,08,85,65,312,29,75,62,264,28,84,37,045,29,74,31,185,19*60
$GLGSV,2,2,08,76,30,324,24,86,20,258,,68,14,030,,70,03,132,*63
$GNRMC,005736.000,A,4434.1780,N,12316.5159,W,0.48,58.75,100518,,,A*5D
$GNGGA,005737.000,4434.1778,N,12316.5161,W,1,10,1.02,71.0,M,-21.0,M,,*76
$GNGLL,4434.1778,N,12316.5161,W,005737.000,A,A*59
$GPGSA,A,3,05,06,25,02,29,12,,,,,,,1.33,1.02,0.85*03
$GLGSA,A,3,75,84,85,76,,,,,,,,,1.33,1.02,0.85*13
$GPGSV,3,1,11,12,74,154,23,02,70,064,17,25,57,304,25,29,31,279,16*7C
$GPGSV,3,2,11,05,28,141,32,06,27,049,19,31,14,321,,24,12,202,14*73
$GPGSV,3,3,11,19,10,081,,38,,,,13,,,18*49
$GLGSV,2,1,08,85,65,312,29,75,62,264,28,84,37,045,29,74,31,185,19*60
$GLGSV,2,2,08,76,30,324,24,86,20,258,,68,14,030,,70,03,132,*63
$GNRMC,005737.000,A,4434.1778,N,12316.5161,W,0.43,66.96,100518,,,A*5B
$GNGGA,005738.000,4434.1775,N,12316.5164,W,1,10,1.02,70.9,M,-21.0,M,,*79
$GNGLL,4434.1775,N,12316.5164,W,005738.000,A,A*5E
$GPGSA,A,3,05,06,25,02,29,12,,,,,,,1.33,1.02,0.85*03
$GLGSA,A,3,75,84,85,76,,,,,,,,,1.33,1.02,0.85*13
$GPGSV,3,1,11,12,74,154,22,02,70,064,17,25,58,303,24,29,31,279,17*75
$GPGSV,3,2,11,05,28,141,32,06,27,049,19,31,14,321,,24,12,202,13*74
$GPGSV,3,3,11,19,10,081,,38,,,,13,,,17*46
$GLGSV,2,1,08,85,65,312,28,75,62,264,29,84,37,045,29,74,31,185,19*60
$GLGSV,2,2,08,76,30,324,24,86,20,258,,68,14,030,,70,03,132,*63
$GNRMC,005738.000,A,4434.1775,N,12316.5164,W,0.47,133.98,100518,,,A*67
$GNGGA,005739.000,4434.1772,N,12316.5166,W,1,10,1.02,71.0,M,-21.0,M,,*75
$GNGLL,4434.1772,N,12316.5166,W,005739.000,A,A*5A
$GPGSA,A,3,05,06,25,02,29,12,,,,,,,1.33,1.02,0.85*03
$GLGSA,A,3,75,84,85,76,,,,,,,,,1.33,1.02,0.85*13
$GPGSV,3,1,11,12,74,154,22,02,70,064,17,25,58,303,25,29,31,279,17*74
$GPGSV,3,2,11,05,28,141,32,06,27,049,18,31,14,321,,24,12,202,*77
$GPGSV,3,3,11,19,10,081,,38,,,,13,,,17*46
$GLGSV,2,1,08,85,65,312,27,75,62,264,29,84,37,045,29,74,31,185,19*6F
$GLGSV,2,2,08,76,30,324,24,86,20,258,,68,14,030,,70,03,132,*63
$GNRMC,005739.000,A,4434.1772,N,12316.5166,W,0.47,174.87,100518,,,A*6E
$GNGGA,005740.000,4434.1770,N,12316.5169,W,1,10,1.02,70.9,M,-21.0,M,,*7E
$GNGLL,4434.1770,N,12316.5169,W,005740.000,A,A*59
$GPGSA,A,3,05,06,25,02,29,12,,,,,,,1.33,1.02,0.85*03
$GLGSA,A,3,75,84,85,76,,,,,,,,,1.33,1.02,0.85*13
$GPGSV,3,1,11,12,74,154,22,02,70,064,17,25,58,303,24,29,31,279,17*75
$GPGSV,3,2,11,05,28,141,32,06,27,049,18,31,14,321,,24,12,202,*77
$GPGSV,3,3,11,19,10,081,,38,,,,13,,,17*46
$GLGSV,2,1,08,85,65,312,27,75,62,264,30,84,37,045,29,74,31,185,18*66
$GLGSV,2,2,08,76,30,324,24,86,20,258,,68,14,030,,70,03,132,*63
$GNRMC,005740.000,A,4434.1770,N,12316.5169,W,0.38,184.55,100518,,,A*65
$GNGGA,005741.000,4434.1770,N,12316.5170,W,1,10,1.02,70.9,M,-21.0,M,,*77
$GNGLL,4434.1770,N,12316.5170,W,005741.000,A,A*50
$GPGSA,A,3,05,06,25,02,29,12,,,,,,,1.33,1.02,0.85*03
$GLGSA,A,3,75,84,85,76,,,,,,,,,1.33,1.02,0.85*13
$GPGSV,3,1,11,12,74,154,21,02,70,064,16,25,58,303,25,29,31,279,17*76
$GPGSV,3,2,11,05,28,141,32,06,27,049,19,31,14,321,,24,12,202,*76
$GPGSV,3,3,11,19,10,081,18,41,,,,13,,,17*41
$GLGSV,2,1,08,85,65,312,27,75,62,264,29,84,37,045,29,74,31,185,18*6E
$GLGSV,2,2,08,76,30,324,24,86,20,258,20,68,14,030,,70,03,132,*61
$GNRMC,005741.000,A,4434.1770,N,12316.5170,W,0.35,274.90,100518,,,A*64
$GNGGA,005742.000,4434.1772,N,12316.5172,W,1,10,1.02,70.8,M,-21.0,M,,*75
$GNGLL,4434.1772,N,12316.5172,W,005742.000,A,A*53
$GPGSA,A,3,05,06,25,02,29,12,,,,,,,1.33,1.02,0.85*03
$GLGSA,A,3,75,84,85,76,,,,,,,,,1.33,1.02,0.85*13
$GPGSV,3,1,11,12,74,154,20,02,70,064,16,25,58,303,26,29,31,280,17*72
$GPGSV,3,2,11,05,28,141,32,06,27,049,20,31,14,321,,24,12,202,*7C
$GPGSV,3,3,11,19,10,081,22,41,,,,13,,,17*48
$GLGSV,2,1,08,85,65,312,27,75,62,264,28,84,37,045,29,74,31,185,18*6F
$GLGSV,2,2,08,76,30,324,24,86,20,258,21,68,14,030,,70,03,132,*60
$GNRMC,005742.000,A,4434.1772,N,12316.5172,W,0.32,307.50,100518,,,A*69
$GNGGA,005743.000,4434.1771,N,12316.5172,W,1,10,1.02,70.8,M,-21.0,M,,*77
$GNGLL,4434.1771,N,12316.5172,W,005743.000,A,A*51
$GPGSA,A,3,05,06,25,02,29,12,,,,,,,1.33,1.02,0.85*03
$GLGSA,A,3,75,84,85,76,,,,,,,,,1.33,1.02,0.85*13
$GPGSV,3,1,11,12,74,154,19,02,70,064,16,25,58,303,27,29,31,280,17*79
$GPGSV,3,2,11,05,28,141,32,06,27,049,20,31,14,321,,24,12,202,*7C
$GPGSV,3,3,11,19,10,081,20,41,,,,13,,,17*4A
$GLGSV,2,1,08,85,65,312,28,75,62,264,28,84,37,045,30,74,31,185,18*68
$GLGSV,2,2,08,76,30,324,24,86,20,258,17,68,14,030,,70,03,132,*65
$GNRMC,005743.000,A,4434.1771,N,12316.5172,W,0.32,295.96,100518,,,A*6B
$GNGGA,005744.000,4434.1772,N,12316.5173,W,1,10,1.02,70.8,M,-21.0,M,,*72
$GNGLL,4434.1772,N,12316.5173,W,005744.000,A,A*54
$GPGSA,A,3,05,06,25,02,29,12,,,,,,,1.33,1.02,0.85*03
$GLGSA,A,3,75,84,85,76,,,,,,,,,1.33,1.02,0.85*13
$GPGSV,3,1,11,12,74,154,18,02,70,064,16,25,58,303,27,29,31,280,17*78
$GPGSV,3,2,11,05,28,141,32,06,27,049,20,31,14,320,,24,12,202,*7D
$GPGSV,3,3,11,19,10,081,19,41,,,,13,,,17*40
$GLGSV,2,1,08,85,65,312,28,75,62,264,28,84,37,045,30,74,31,185,18*68
$GLGSV,2,2,08,76,30,324,25,86,20,258,18,68,14,030,,70,03,132,*6B
$GNRMC,005744.000,A,4434.1772,N,12316.5173,W,0.32,310.29,100518,,,A*66
$GNGGA,005745.000,4434.1773,N,12316.5174,W,1,10,1.02,70.8,M,-21.0,M,,*75
$GNGLL,4434.1773,N,12316.5174,W,005745.000,A,A*53
$GPGSA,A,3,05,06,25,02,29,12,,,,,,,1.33,1.02,0.85*03
$GLGSA,A,3,75,84,85,76,,,,,,,,,1.33,1.02,0.85*13
$GPGSV,3,1,11,12,74,154,18,02,70,064,16,25,58,303,27,29,31,280,17*78
$GPGSV,3,2,11,05,28,141,32,06,27,049,20,31,14,320,,24,12,202,17*7B
$GPGSV,3,3,11,19,10,081,18,41,,,,13,,,17*41
$GLGSV,2,1,08,85,65,312,29,75,62,264,28,84,37,045,30,74,31,185,18*69
$GLGSV,2,2,08,76,30,324,25,86,20,258,18,68,14,030,,70,03,132,*6B
$GNRMC,005745.000,A,4434.1773,N,12316.5174,W,0.31,240.43,100518,,,A*6A
$GNGGA,005746.000,4434.1772,N,12316.5176,W,1,10,1.02,70.8,M,-21.0,M,,*75
$GNGLL,4434.1772,N,12316.5176,W,005746.000,A,A*53
$GPGSA,A,3,05,06,25,02,29,12,,,,,,,1.33,1.02,0.85*03
$GLGSA,A,3,75,84,85,76,,,,,,,,,1.33,1.02,0.85*13
$GPGSV,3,1,11,12,74,154,18,02,70,064,15,25,58,303,27,29,31,280,17*7B
$GPGSV,3,2,11,05,28,141,32,06,27,049,20,31,14,320,,24,12,202,18*74
$GPGSV,3,3,11,19,10,081,17,41,,,,13,,,17*4E
$GLGSV,2,1,08,85,65,312,29,75,62,264,28,84,37,045,30,74,31,185,18*69
$GLGSV,2,2,08,76,30,324,25,86,20,258,18,68,14,030,,70,03,132,*6B
$GNRMC,005746.000,A,4434.1772,N,12316.5176,W,0.34,240.62,100518,,,A*6C
$GNGGA,005747.000,4434.1771,N,12316.5174,W,1,10,1.02,70.7,M,-21.0,M,,*7A
$GNGLL,4434.1771,N,12316.5174,W,005747.000,A,A*53
$GPGSA,A,3,05,06,25,02,29,12,,,,,,,1.33,1.02,0.85*03
$GLGSA,A,3,75,84,85,76,,,,,,,,,1.33,1.02,0.85*13
$GPGSV,3,1,11,12,74,154,18,02,70,064,15,25,58,303,27,29,31,280,17*7B
$GPGSV,3,2,11,05,28,141,32,06,27,049,19,31,14,320,,24,12,202,17*71
$GPGSV,3,3,11,19,10,081,17,41,,,,13,,,17*4E
$GLGSV,2,1,08,85,65,312,29,75,62,264,28,84,37,045,30,74,31,185,18*69
$GLGSV,2,2,08,76,30,324,25,86,20,258,18,68,14,030,,70,03,132,*6B
$GNRMC,005747.000,A,4434.1771,N,12316.5174,W,0.38,157.06,100518,,,A*67
$GNGGA,005748.000,4434.1769,N,12316.5174,W,1,10,1.02,70.7,M,-21.0,M,,*7C
$GNGLL,4434.1769,N,12316.5174,W,005748.000,A,A*55
$GPGSA,A,3,05,06,25,02,29,12,,,,,,,1.33,1.02,0.85*03
$GLGSA,A,3,75,84,85,76,,,,,,,,,1.33,1.02,0.85*13
$GPGSV,3,1,11,12,74,154,18,02,70,064,14,25,58,303,26,29,31,280,17*7B
$GPGSV,3,2,11,05,28,141,32,06,27,049,19,31,14,320,,24,12,202,17*71
$GPGSV,3,3,11,19,10,081,17,43,,,,13,,,17*4C
$GLGSV,2,1,08,85,65,312,29,75,62,264,27,84,37,045,30,74,31,185,18*66
$GLGSV,2,2,08,76,30,324,24,86,20,258,18,68,14,030,,70,03,132,*6A
$GNRMC,005748.000,A,4434.1769,N,12316.5174,W,0.35,170.87,100518,,,A*60
$GNGGA,005749.000,4434.1769,N,12316.5173,W,1,10,1.02,70.7,M,-21.0,M,,*7A
$GNGLL,4434.1769,N,12316.5173,W,005749.000,A,A*53
$GPGSA,A,3,05,06,25,02,29,12,,,,,,,1.33,1.02,0.85*03
$GLGSA,A,3,75,84,85,76,,,,,,,,,1.33,1.02,0.85*13
$GPGSV,3,1,11,12,74,154,18,02,70,064,14,25,58,303,26,29,31,280,17*7B
$GPGSV,3,2,11,05,28,141,32,06,27,049,19,31,14,320,,24,12,202,17*71
$GPGSV,3,3,11,19,10,081,17,43,,,,13,,,17*4C
$GLGSV,2,1,08,85,65,312,29,75,62,264,27,84,37,045,30,74,31,185,18*66
$GLGSV,2,2,08,76,30,324,24,86,20,258,19,68,14,030,,70,03,132,*6B
$GNRMC,005749.000,A,4434.1769,N,12316.5173,W,0.34,27.36,100518,,,A*5E
$GNGGA,005750.000,4434.1769,N,12316.5173,W,1,10,1.02,70.7,M,-21.0,M,,*72
$GNGLL,4434.1769,N,12316.5173,W,005750.000,A,A*5B
$GPGSA,A,3,05,06,25,02,29,12,,,,,,,1.33,1.02,0.85*03
$GLGSA,A,3,75,84,85,76,,,,,,,,,1.33,1.02,0.85*13
$GPGSV,3,1,11,12,74,154,17,02,70,064,13,25,58,303,26,29,31,280,17*73
$GPGSV,3,2,11,05,28,141,32,06,27,049,19,31,14,320,,24,12,202,17*71
$GPGSV,3,3,11,19,10,081,17,43,,,,13,,,17*4C
$GLGSV,2,1,08,85,65,312,30,75,62,264,27,84,37,045,30,74,31,185,19*6F
$GLGSV,2,2,08,76,30,324,24,86,20,258,19,68,14,030,,70,03,132,*6B
$GNRMC,005750.000,A,4434.1769,N,12316.5173,W,0.34,238.83,100518,,,A*64
$GNGGA,005751.000,4434.1768,N,12316.5174,W,1,10,1.02,70.6,M,-21.0,M,,*74
$GNGLL,4434.1768,N,12316.5174,W,005751.000,A,A*5C
$GPGSA,A,3,05,06,25,02,29,12,,,,,,,1.33,1.02,0.85*03
$GLGSA,A,3,75,84,85,76,,,,,,,,,1.33,1.02,0.85*13
$GPGSV,3,1,11,12,74,154,16,02,70,064,13,25,58,303,26,29,31,280,18*7D
$GPGSV,3,2,11,05,28,141,32,06,27,049,20,31,14,320,,24,12,202,17*7B
$GPGSV,3,3,11,19,10,081,17,43,,,,13,,,17*4C
$GLGSV,2,1,08,85,65,312,29,75,62,264,26,84,37,045,30,74,31,185,19*66
$GLGSV,2,2,08,76,30,324,24,86,20,258,19,68,14,030,,70,03,132,*6B
$GNRMC,005751.000,A,4434.1768,N,12316.5174,W,0.36,236.79,100518,,,A*6A
$GNGGA,005752.000,4434.1767,N,12316.5176,W,1,10,1.02,70.6,M,-21.0,M,,*7A
$GNGLL,4434.1767,N,12316.5176,W,005752.000,A,A*52
$GPGSA,A,3,05,06,25,02,29,12,,,,,,,1.33,1.02,0.85*03
$GLGSA,A,3,75,84,85,76,,,,,,,,,1.33,1.02,0.85*13
$GPGSV,3,1,11,12,74,154,15,02,70,064,13,25,58,303,25,29,31,280,18*7D
$GPGSV,3,2,11,05,28,141,32,06,27,049,20,31,14,320,,24,12,202,17*7B
$GPGSV,3,3,11,19,10,081,17,43,,,,13,,,17*4C
$GLGSV,2,1,08,85,65,312,29,75,62,264,26,84,37,045,30,74,31,185,19*66
$GLGSV,2,2,08,76,30,324,24,86,20,258,19,68,14,030,,70,03,132,*6B
$GNRMC,005752.000,A,4434.1767,N,12316.5176,W,0.37,225.60,100518,,,A*6F
$GNGGA,005753.000,4434.1768,N,12316.5178,W,1,10,1.02,70.6,M,-21.0,M,,*7A
$GNGLL,4434.1768,N,12316.5178,W,005753.000,A,A*52
$GPGSA,A,3,05,06,25,02,29,12,,,,,,,1.33,1.02,0.85*03
$GLGSA,A,3,75,84,85,76,,,,,,,,,1.33,1.02,0.85*13
$GPGSV,3,1,11,12,74,154,14,02,70,064,14,25,58,303,24,29,31,280,18*7A
$GPGSV,3,2,11,05,28,141,32,06,27,049,19,31,14,320,,24,12,202,17*71
$GPGSV,3,3,11,19,10,081,17,43,,,,13,,,17*4C
$GLGSV,2,1,08,85,65,312,29,75,62,264,25,84,37,045,29,74,31,185,19*6D
$GLGSV,2,2,08,76,30,324,23,86,20,258,20,68,14,030,,70,03,132,*66
$GNRMC,005753.000,A,4434.1768,N,12316.5178,W,0.39,273.76,100518,,,A*65
$GNGGA,005754.000,4434.1768,N,12316.5179,W,1,10,1.02,70.6,M,-21.0,M,,*7C
$GNGLL,4434.1768,N,12316.5179,W,005754.000,A,A*54
$GPGSA,A,3,05,06,25,02,29,12,,,,,,,1.33,1.02,0.85*03
$GLGSA,A,3,75,84,85,76,,,,,,,,,1.33,1.02,0.85*13
$GPGSV,3,1,11,12,74,154,14,02,70,064,15,25,58,303,24,29,31,280,18*7B
$GPGSV,3,2,11,05,28,141,32,06,27,049,19,31,14,320,,24,12,202,17*71
$GPGSV,3,3,11,19,10,081,17,45,,,,13,,,17*4A
$GLGSV,2,1,08,85,65,312,28,75,62,264,25,84,37,045,29,74,31,185,19*6C
$GLGSV,2,2,08,76,30,324,23,86,20,258,20,68,14,030,,70,03,132,*66
$GNRMC,005754.000,A,4434.1768,N,12316.5179,W,0.39,285.47,100518,,,A*68
$GNGGA,005755.000,4434.1768,N,12316.5180,W,1,10,1.02,70.6,M,-21.0,M,,*7B
$GNGLL,4434.1768,N,12316.5180,W,005755.000,A,A*53
$GPGSA,A,3,05,06,25,02,29,12,,,,,,,1.33,1.02,0.85*03
$GLGSA,A,3,75,84,85,76,,,,,,,,,1.33,1.02,0.85*13
$GPGSV,3,1,11,12,74,154,14,02,70,064,15,25,58,303,23,29,31,280,18*7C
$GPGSV,3,2,11,05,28,141,32,06,27,049,19,31,14,320,,24,12,202,17*71
$GPGSV,3,3,11,19,10,081,17,45,,,,13,,,17*4A
$GLGSV,2,1,08,85,65,312,28,75,62,264,25,84,37,045,29,74,31,185,19*6C
$GLGSV,2,2,08,76,30,324,23,86,20,258,20,68,14,030,,70,03,132,*66
$GNRMC,005755.000,A,4434.1768,N,12316.5180,W,0.46,275.71,100518,,,A*6D
$GNGGA,005756.000,4434.1769,N,12316.5181,W,1,10,1.02,70.6,M,-21.0,M,,*78
$GNGLL,4434.1769,N,12316.5181,W,005756.000,A,A*50
$GPGSA,A,3,05,06,25,02,29,12,,,,,,,1.33,1.02,0.85*03
$GLGSA,A,3,75,84,85,76,,,,,,,,,1.33,1.02,0.85*13
$GPGSV,3,1,11,12,74,154,14,02,70,064,15,25,58,303,23,29,31,280,18*7C
$GPGSV,3,2,11,05,28,141,32,06,27,049,20,31,14,320,,24,12,202,17*7B
$GPGSV,3,3,11,19,10,081,17,45,,,,13,,,17*4A
$GLGSV,2,1,08,85,65,312,28,75,62,264,25,84,37,045,29,74,31,185,19*6C
$GLGSV,2,2,08,76,30,324,22,86,20,258,20,68,14,030,,70,03,132,*67
$GNRMC,005756.000,A,4434.1769,N,12316.5181,W,0.49,300.22,100518,,,A*64
$GNGGA,005757.000,4434.1767,N,12316.5180,W,1,10,1.02,70.6,M,-21.0,M,,*76
$GNGLL,4434.1767,N,12316.5180,W,005757.000,A,A*5E
$GPGSA,A,3,05,06,25,02,29,12,,,,,,,1.33,1.02,0.85*03
$GLGSA,A,3,75,84,85,76,,,,,,,,,1.33,1.02,0.85*13
$GPGSV,3,1,11,12,74,154,14,02,70,064,15,25,58,303,23,29,31,280,18*7C
$GPGSV,3,2,11,05,28,141,32,06,27,049,20,31,14,320,17,24,12,202,17*7D
$GPGSV,3,3,11,19,10,081,17,45,,,,13,,,17*4A
$GLGSV,2,1,08,85,65,312,28,75,62,264,26,84,37,045,29,74,31,185,20*65
$GLGSV,2,2,08,76,30,324,22,86,20,258,20,68,14,030,,70,03,132,*67
$GNRMC,005757.000,A,4434.1767,N,12316.5180,W,0.47,300.97,100518,,,A*6A
$GNGGA,005758.000,4434.1765,N,12316.5176,W,1,10,1.02,70.5,M,-21.0,M,,*71
$GNGLL,4434.1765,N,12316.5176,W,005758.000,A,A*5A
$GPGSA,A,3,05,06,25,02,29,12,,,,,,,1.33,1.02,0.85*03
$GLGSA,A,3,75,84,85,76,,,,,,,,,1.33,1.02,0.85*13
$GPGSV,3,1,11,12,74,154,13,02,70,064,16,25,58,303,24,29,31,280,19*7E
$GPGSV,3,2,11,05,28,141,32,06,27,049,20,31,14,320,16,24,12,202,17*7C
$GPGSV,3,3,11,19,10,081,17,45,,,,13,,,17*4A
$GLGSV,2,1,08,85,65,312,29,75,62,264,26,84,37,045,29,74,31,185,21*65
$GLGSV,2,2,08,76,30,324,22,86,20,258,20,68,14,030,,70,03,132,*67
$GNRMC,005758.000,A,4434.1765,N,12316.5176,W,0.45,150.52,100518,,,A*62
$GNGGA,005759.000,4434.1763,N,12316.5176,W,1,10,1.02,70.5,M,-21.0,M,,*76
$GNGLL,4434.1763,N,12316.5176,W,005759.000,A,A*5D
$GPGSA,A,3,05,06,25,02,29,12,,,,,,,1.33,1.02,0.85*03
$GLGSA,A,3,75,84,85,76,,,,,,,,,1.33,1.02,0.85*13
$GPGSV,3,1,11,12,74,154,12,02,70,064,15,25,58,303,24,29,31,280,19*7C
$GPGSV,3,2,11,05,28,141,32,06,27,049,20,31,14,320,15,24,12,202,17*7F
$GPGSV,3,3,11,19,10,081,17,45,,,,13,,,17*4A
$GLGSV,2,1,08,85,65,312,28,75,62,264,26,84,37,045,29,74,31,185,21*64
$GLGSV,2,2,08,76,30,324,22,86,20,258,20,68,14,030,,70,03,132,*67
$GNRMC,005759.000,A,4434.1763,N,12316.5176,W,0.47,190.11,100518,,,A*6C
$GNGGA,005800.000,4434.1761,N,12316.5175,W,1,10,1.02,70.5,M,-21.0,M,,*74
$GNGLL,4434.1761,N,12316.5175,W,005800.000,A,A*5F
$GPGSA,A,3,05,06,25,02,29,12,,,,,,,1.33,1.02,0.85*03
$GLGSA,A,3,75,84,85,76,,,,,,,,,1.33,1.02,0.85*13
$GPGSV,3,1,11,12,74,154,12,02,70,064,16,25,58,303,24,29,31,280,20*75
$GPGSV,3,2,11,05,28,141,32,06,27,049,20,31,14,320,17,24,12,202,18*72
$GPGSV,3,3,11,19,10,081,17,46,,,,13,,,17*49
$GLGSV,2,1,08,85,65,312,29,75,62,264,26,84,37,045,29,74,31,185,21*65
$GLGSV,2,2,08,76,30,324,21,86,20,258,20,68,14,030,,70,03,132,*64
$GNRMC,005800.000,A,4434.1761,N,12316.5175,W,0.48,195.22,100518,,,A*64
$GNGGA,005801.000,4434.1760,N,12316.5171,W,1,10,1.02,70.5,M,-21.0,M,,*70
$GNGLL,4434.1760,N,12316.5171,W,005801.000,A,A*5B
$GPGSA,A,3,05,06,25,02,29,12,,,,,,,1.33,1.02,0.85*03
$GLGSA,A,3,75,84,85,76,,,,,,,,,1.33,1.02,0.85*13
$GPGSV,3,1,11,12,74,154,13,02,70,064,16,25,58,303,24,29,31,280,20*74
$GPGSV,3,2,11,05,28,141,32,06,27,049,20,31,14,320,16,24,12,202,18*73
$GPGSV,3,3,11,19,10,081,17,46,,,,13,,,17*49
$GLGSV,2,1,08,85,65,312,29,75,62,264,27,84,37,045,29,74,31,185,21*64
$GLGSV,2,2,08,76,30,324,21,86,20,258,20,68,14,030,,70,03,132,*64
$GNRMC,005801.000,A,4434.1760,N,12316.5171,W,0.50,185.95,100518,,,A*64
$GNGGA,005802.000,4434.1760,N,12316.5174,W,1,10,1.02,70.4,M,-21.0,M,,*77
$GNGLL,4434.1760,N,12316.5174,W,005802.000,A,A*5D
$GPGSA,A,3,05,06,25,02,29,12,,,,,,,1.33,1.02,0.85*03
$GLGSA,A,3,75,84,85,76,,,,,,,,,1.33,1.02,0.85*13
$GPGSV,3,1,11,12,74,154,12,02,70,064,16,25,58,303,24,29,31,280,21*74
$GPGSV,3,2,11,05,28,141,32,06,27,049,20,31,14,320,15,24,12,202,18*70
$GPGSV,3,3,11,19,10,081,18,46,,,,13,,,17*46
$GLGSV,2,1,08,85,65,312,30,75,62,264,27,84,37,045,29,74,31,185,21*6C
$GLGSV,2,2,08,76,30,324,21,86,20,258,20,68,14,030,,70,03,132,*64
$GNRMC,005802.000,A,4434.1760,N,12316.5174,W,0.49,200.43,100518,,,A*6F
$GNGGA,005803.000,4434.1759,N,12316.5175,W,1,10,1.02,70.5,M,-21.0,M,,*7C
$GNGLL,4434.1759,N,12316.5175,W,005803.000,A,A*57
$GPGSA,A,3,05,06,25,02,29,12,,,,,,,1.33,1.02,0.85*03
$GLGSA,A,3,75,84,85,76,,,,,,,,,1.33,1.02,0.85*13
$GPGSV,3,1,11,12,74,154,12,02,70,064,16,25,58,303,24,29,31,280,21*74
$GPGSV,3,2,11,05,28,141,32,06,27,049,20,31,14,320,15,24,12,202,18*70
$GPGSV,3,3,11,19,10,081,18,46,,,,13,,,17*46
$GLGSV,2,1,08,85,65,312,30,75,62,264,27,84,37,045,29,74,31,185,20*6D
$GLGSV,2,2,08,76,30,324,21,86,20,258,20,68,14,030,,70,03,132,*64
$GNRMC,005803.000,A,4434.1759,N,12316.5175,W,0.49,268.02,100518,,,A*6E
$GNGGA,005804.000,4434.1759,N,12316.5171,W,1,10,1.02,70.4,M,-21.0,M,,*7E
$GNGLL,4434.1759,N,12316.5171,W,005804.000,A,A*54
$GPGSA,A,3,05,06,25,02,29,12,,,,,,,1.33,1.02,0.85*03
$GLGSA,A,3,75,84,85,76,,,,,,,,,1.33,1.02,0.85*13
$GPGSV,3,1,11,12,74,154,13,02,70,064,16,25,58,303,24,29,31,280,21*75
$GPGSV,3,2,11,05,28,141,32,06,27,049,20,31,14,320,15,24,12,202,18*70
$GPGSV,3,3,11,19,10,081,18,46,,,,13,,,17*46
$GLGSV,2,1,08,85,65,312,29,75,62,264,26,84,37,045,29,74,31,185,19*6E
$GLGSV,2,2,08,76,30,324,21,86,20,258,20,68,14,030,,70,03,132,*64
$GNRMC,005804.000,A,4434.1759,N,12316.5171,W,0.50,108.72,100518,,,A*67
$GNGGA,005805.000,4434.1759,N,12316.5169,W,1,10,1.02,70.4,M,-21.0,M,,*76
$GNGLL,4434.1759,N,12316.5169,W,005805.000,A,A*5C
$GPGSA,A,3,05,06,25,02,29,12,,,,,,,1.33,1.02,0.85*03
$GLGSA,A,3,75,84,85,76,,,,,,,,,1.33,1.02,0.85*13
$GPGSV,3,1,11,12,74,154,13,02,70,064,16,25,58,303,23,29,31,280,20*73
$GPGSV,3,2,11,05,28,141,32,06,27,049,20,31,14,320,15,24,12,202,18*70
$GPGSV,3,3,11,19,10,081,18,46,,,,13,,,17*46
$GLGSV,2,1,08,85,65,312,29,75,62,264,26,84,37,045,29,74,31,185,19*6E
$GLGSV,2,2,08,76,30,324,21,86,20,258,20,68,14,030,,70,03,132,*64
$GNRMC,005805.000,A,4434.1759,N,12316.5169,W,0.45,90.31,100518,,,A*5C
$GNGGA,005806.000,4434.1760,N,12316.5169,W,1,10,1.02,70.4,M,-21.0,M,,*7F
$GNGLL,4434.1760,N,12316.5169,W,005806.000,A,A*55
$GPGSA,A,3,05,06,25,02,29,12,,,,,,,1.33,1.02,0.85*03
$GLGSA,A,3,75,84,85,76,,,,,,,,,1.33,1.02,0.85*13
$GPGSV,3,1,11,12,74,154,14,02,70,064,16,25,58,303,23,29,31,280,19*7E
$GPGSV,3,2,11,05,28,141,32,06,27,049,21,31,14,320,15,24,12,202,18*71
$GPGSV,3,3,11,19,10,081,18,46,,,,13,,,17*46
$GLGSV,2,1,08,85,65,312,28,75,62,264,26,84,37,045,29,74,31,185,19*6F
$GLGSV,2,2,08,76,30,324,21,86,20,258,20,68,14,030,,70,03,132,*64
$GNRMC,005806.000,A,4434.1760,N,12316.5169,W,0.38,64.59,100518,,,A*5A
$GNGGA,005807.000,4434.1760,N,12316.5166,W,1,10,1.02,70.4,M,-21.0,M,,*71
$GNGLL,4434.1760,N,12316.5166,W,005807.000,A,A*5B
$GPGSA,A,3,05,06,25,02,29,12,,,,,,,1.33,1.02,0.85*03
$GLGSA,A,3,75,84,85,76,,,,,,,,,1.33,1.02,0.85*13
$GPGSV,3,1,11,12,74,154,14,02,70,064,16,25,58,303,23,29,31,280,19*7E
$GPGSV,3,2,11,05,28,141,32,06,27,049,21,31,14,320,15,24,12,202,18*71
$GPGSV,3,3,11,19,10,081,18,47,,,,13,,,17*47
$GLGSV,2,1,08,85,65,312,27,75,62,264,25,84,37,045,29,74,31,185,19*63
$GLGSV,2,2,08,76,30,324,22,86,20,258,20,68,14,030,,70,03,132,*67
$GNRMC,005807.000,A,4434.1760,N,12316.5166,W,0.40,107.73,100518,,,A*67
$GNGGA,005808.000,4434.1760,N,12316.5163,W,1,10,1.02,70.4,M,-21.0,M,,*7B
$GNGLL,4434.1760,N,12316.5163,W,005808.000,A,A*51
$GPGSA,A,3,05,06,25,02,29,12,,,,,,,1.33,1.02,0.85*03
$GLGSA,A,3,75,84,85,76,,,,,,,,,1.33,1.02,0.85*13
$GPGSV,3,1,11,12,74,154,13,02,70,064,16,25,58,303,23,29,31,280,20*73
$GPGSV,3,2,11,05,28,141,32,06,27,049,20,31,14,320,15,24,12,202,18*70
$GPGSV,3,3,11,19,10,081,18,47,,,,13,,,17*47
$GLGSV,2,1,08,85,65,312,28,75,62,264,26,84,37,045,29,74,31,185,20*65
$GLGSV,2,2,08,76,30,324,22,86,20,258,20,68,14,030,,70,03,132,*67
$GNRMC,005808.000,A,4434.1760,N,12316.5163,W,0.40,88.80,100518,,,A*57
$GNGGA,005809.000,4434.1759,N,12316.5161,W,1,10,1.02,70.4,M,-21.0,M,,*72
$GNGLL,4434.1759,N,12316.5161,W,005809.000,A,A*58
$GPGSA,A,3,05,06,25,02,29,12,,,,,,,1.33,1.02,0.85*03
$GLGSA,A,3,75,84,85,76,,,,,,,,,1.33,1.02,0.85*13
$GPGSV,3,1,11,12,74,154,12,02,70,064,16,25,58,303,24,29,31,280,20*75
$GPGSV,3,2,11,05,28,141,32,06,27,049,21,31,14,320,15,24,12,202,18*71
$GPGSV,3,3,11,19,10,081,18,47,,,,13,,,17*47
$GLGSV,2,1,08,85,65,312,28,75,62,264,26,84,37,045,29,74,31,185,19*6F
$GLGSV,2,2,08,76,30,324,22,86,20,258,19,68,14,030,,70,03,132,*6D
$GNRMC,005809.000,A,4434.1759,N,12316.5161,W,0.39,130.18,100518,,,A*63
$GNGGA,005810.000,4434.1760,N,12316.5158,W,1,10,1.02,70.4,M,-21.0,M,,*7A
$GNGLL,4434.1760,N,12316.5158,W,005810.000,A,A*50
$GPGSA,A,3,05,06,25,02,29,12,,,,,,,1.33,1.02,0.85*03
$GLGSA,A,3,75,84,85,76,,,,,,,,,1.33,1.02,0.85*13
$GPGSV,3,1,11,12,74,154,13,02,70,064,16,25,58,303,24,29,31,280,20*74
$GPGSV,3,2,11,05,28,141,32,06,27,049,21,31,14,320,15,24,12,202,18*71
$GPGSV,3,3,11,19,10,081,18,47,,,,13,,,17*47
$GLGSV,2,1,08,85,65,312,29,75,62,264,26,84,37,045,29,74,31,185,19*6E
$GLGSV,2,2,08,76,30,324,22,86,20,258,19,68,14,030,,70,03,132,*6D
$GNRMC,005810.000,A,4434.1760,N,12316.5158,W,0.38,130.19,100518,,,A*6B
$GNGGA,005811.000,4434.1760,N,12316.5158,W,1,10,1.02,70.4,M,-21.0,M,,*7B
$GNGLL,4434.1760,N,12316.5158,W,005811.000,A,A*51
$GPGSA,A,3,05,06,25,02,29,12,,,,,,,1.33,1.02,0.85*03
$GLGSA,A,3,75,84,85,76,,,,,,,,,1.33,1.02,0.85*13
$GPGSV,3,1,11,12,74,154,13,02,70,064,16,25,58,303,25,29,31,280,21*74
$GPGSV,3,2,11,05,28,141,32,06,27,049,21,31,14,320,15,24,12,202,18*71
$GPGSV,3,3,11,19,10,081,18,47,,,,13,,,17*47
$GLGSV,2,1,08,85,65,312,29,75,62,264,27,84,37,045,29,74,31,185,20*65
$GLGSV,2,2,08,76,30,324,22,86,20,258,18,68,14,030,,70,03,132,*6C
$GNRMC,005811.000,A,4434.1760,N,12316.5158,W,0.44,284.26,100518,,,A*61
$GNGGA,005812.000,4434.1761,N,12316.5162,W,1,10,1.02,70.4,M,-21.0,M,,*70
$GNGLL,4434.1761,N,12316.5162,W,005812.000,A,A*5A
$GPGSA,A,3,05,06,25,02,29,12,,,,,,,1.33,1.02,0.85*03
$GLGSA,A,3,75,84,85,76,,,,,,,,,1.33,1.02,0.85*13
$GPGSV,3,1,11,12,74,154,13,02,70,064,16,25,58,303,26,29,31,280,21*77
$GPGSV,3,2,11,05,28,141,32,06,27,049,21,31,14,320,15,24,12,202,18*71
$GPGSV,3,3,11,19,10,081,18,47,,,,13,,,17*47
$GLGSV,2,1,08,85,65,312,29,75,62,264,26,84,37,045,30,74,31,185,20*6C
$GLGSV,2,2,08,76,30,324,22,86,20,258,17,68,14,030,,70,03,132,*63
$GNRMC,005812.000,A,4434.1761,N,12316.5162,W,0.50,283.80,100518,,,A*64
$GNGGA,005813.000,4434.1762,N,12316.5163,W,1,10,1.02,70.5,M,-21.0,M,,*72
$GNGLL,4434.1762,N,12316.5163,W,005813.000,A,A*59
$GPGSA,A,3,05,06,25,02,29,12,,,,,,,1.33,1.02,0.85*03
$GLGSA,A,3,75,84,85,76,,,,,,,,,1.33,1.02,0.85*13
$GPGSV,3,1,11,12,74,154,14,02,70,064,16,25,58,303,26,29,31,280,21*70
$GPGSV,3,2,11,05,28,141,32,06,27,049,20,31,14,320,14,24,12,202,18*71
$GPGSV,3,3,11,19,10,081,18,49,,,,13,,,17*49
$GLGSV,2,1,08,85,65,312,29,75,62,264,27,84,37,045,30,74,31,185,20*6D
$GLGSV,2,2,08,76,30,324,23,86,20,258,17,68,14,030,,70,03,132,*62
$GNRMC,005813.000,A,4434.1762,N,12316.5163,W,0.52,282.31,100518,,,A*6E
$GNGGA,005814.000,4434.1763,N,12316.5163,W,1,10,1.02,70.5,M,-21.0,M,,*74
$GNGLL,4434.1763,N,12316.5163,W,005814.000,A,A*5F
$GPGSA,A,3,05,06,25,02,29,12,,,,,,,1.33,1.02,0.85*03
$GLGSA,A,3,75,84,85,76,,,,,,,,,1.33,1.02,0.85*13
$GPGSV,3,1,11,12,74,154,14,02,70,064,16,25,58,303,27,29,31,280,21*71
$GPGSV,3,2,11,05,28,141,32,06,27,049,20,31,14,320,14,24,12,202,18*71
$GPGSV,3,3,11,19,10,081,18,49,,,,13,,,17*49
$GLGSV,2,1,08,85,65,312,29,75,62,264,27,84,37,045,30,74,31,185,20*6D
$GLGSV,2,2,08,76,30,324,23,86,20,258,18,68,14,030,,70,03,132,*6D
$GNRMC,005814.000,A,4434.1763,N,12316.5163,W,0.53,293.06,100518,,,A*6D
$GNGGA,005815.000,4434.1763,N,12316.5162,W,1,10,1.02,70.5,M,-21.0,M,,*74
$GNGLL,4434.1763,N,12316.5162,W,005815.000,A,A*5F
$GPGSA,A,3,05,06,25,02,29,12,,,,,,,1.33,1.02,0.85*03
$GLGSA,A,3,75,84,85,76,,,,,,,,,1.33,1.02,0.85*13
$GPGSV,3,1,11,12,74,154,14,02,70,064,16,25,58,303,27,29,31,280,21*71
$GPGSV,3,2,11,05,28,141,32,06,27,049,20,31,14,320,14,24,12,202,17*7E
$GPGSV,3,3,11,19,10,081,18,49,,,,13,,,17*49
$GLGSV,2,1,08,85,65,312,29,75,62,264,27,84,37,045,30,74,31,185,20*6D
$GLGSV,2,2,08,76,30,324,23,86,20,258,18,68,14,030,,70,03,132,*6D
$GNRMC,005815.000,A,4434.1763,N,12316.5162,W,0.52,271.96,100518,,,A*69
$GNGGA,005816.000,4434.1763,N,12316.5162,W,1,10,1.02,70.4,M,-21.0,M,,*76
$GNGLL,4434.1763,N,12316.5162,W,005816.000,A,A*5C
$GPGSA,A,3,05,06,25,02,29,12,,,,,,,1.33,1.02,0.85*03
$GLGSA,A,3,75,84,85,76,,,,,,,,,1.33,1.02,0.85*13
$GPGSV,3,1,11,12,74,154,13,02,70,064,16,25,58,303,27,29,31,280,22*75
$GPGSV,3,2,11,05,28,141,32,06,27,049,20,31,14,320,13,24,12,202,16*78
$GPGSV,3,3,11,19,10,081,18,49,,,,13,,,17*49
$GLGSV,2,1,08,85,65,312,29,75,62,264,27,84,37,045,30,74,31,185,20*6D
$GLGSV,2,2,08,76,30,324,23,86,20,258,18,68,14,030,,70,03,132,*6D
$GNRMC,005816.000,A,4434.1763,N,12316.5162,W,0.52,277.50,100518,,,A*66
$GNGGA,005817.000,4434.1764,N,12316.5161,W,1,10,1.02,70.4,M,-21.0,M,,*73
$GNGLL,4434.1764,N,12316.5161,W,005817.000,A,A*59
$GPGSA,A,3,05,06,25,02,29,12,,,,,,,1.33,1.02,0.85*03
$GLGSA,A,3,75,84,85,76,,,,,,,,,1.33,1.02,0.85*13
$GPGSV,3,1,11,12,74,154,13,02,70,064,17,25,58,303,27,29,31,280,22*74
$GPGSV,3,2,11,05,28,141,32,06,27,049,20,31,14,320,13,24,12,202,16*78
$GPGSV,3,3,11,19,10,081,18,49,,,,13,,,17*49
$GLGSV,2,1,08,85,65,312,29,75,62,264,27,84,37,045,30,74,31,185,21*6C
$GLGSV,2,2,08,76,30,324,23,86,20,258,18,68,14,030,,70,03,132,*6D
$GNRMC,005817.000,A,4434.1764,N,12316.5161,W,0.50,301.90,100518,,,A*6D
$GNGGA,005818.000,4434.1765,N,12316.5159,W,1,10,1.02,70.3,M,-21.0,M,,*71
$GNGLL,4434.1765,N,12316.5159,W,005818.000,A,A*5C
$GPGSA,A,3,05,06,25,02,29,12,,,,,,,1.33,1.02,0.85*03
$GLGSA,A,3,75,84,85,76,,,,,,,,,1.33,1.02,0.85*13
$GPGSV,3,1,11,12,74,154,13,02,70,064,18,25,58,303,26,29,31,280,22*7A
$GPGSV,3,2,11,05,28,141,32,06,27,049,20,31,14,320,13,24,12,202,16*78
$GPGSV,3,3,11,19,10,081,18,49,,,,13,,,17*49
$GLGSV,2,1,08,85,65,312,28,75,62,264,27,84,37,045,30,74,31,185,21*6D
$GLGSV,2,2,08,76,30,324,22,86,20,258,18,68,14,030,,70,03,132,*6C
$GNRMC,005818.000,A,4434.1765,N,12316.5159,W,0.50,352.62,100518,,,A*63
$GNGGA,005819.000,4434.1764,N,12316.5161,W,1,10,1.02,70.4,M,-21.0,M,,*7D
$GNGLL,4434.1764,N,12316.5161,W,005819.000,A,A*57
$GPGSA,A,3,05,06,25,02,29,12,,,,,,,1.33,1.02,0.85*03
$GLGSA,A,3,75,84,85,76,,,,,,,,,1.33,1.02,0.85*13
$GPGSV,3,1,11,12,74,154,13,02,70,064,18,25,58,303,26,29,31,280,23*7B
$GPGSV,3,2,11,05,28,141,32,06,27,049,19,31,14,320,13,24,12,202,16*72
$GPGSV,3,3,11,19,10,081,18,49,,,,13,,,17*49
$GLGSV,2,1,08,85,65,312,28,75,62,264,27,84,37,045,30,74,31,185,21*6D
$GLGSV,2,2,08,76,30,324,22,86,20,258,18,68,14,030,,70,03,132,*6C
$GNRMC,005819.000,A,4434.1764,N,12316.5161,W,0.51,66.11,100518,,,A*59
$GNGGA,005820.000,4434.1765,N,12316.5160,W,1,10,1.02,70.4,M,-21.0,M,,*77
$GNGLL,4434.1765,N,12316.5160,W,005820.000,A,A*5D
$GPGSA,A,3,05,06,25,02,29,12,,,,,,,1.33,1.02,0.85*03
$GLGSA,A,3,75,84,85,76,,,,,,,,,1.33,1.02,0.85*13
$GPGSV,3,1,10,12,74,154,12,02,70,064,19,25,58,303,26,29,31,280,23*7A
$GPGSV,3,2,10,05,28,141,32,06,27,049,19,31,14,320,12,24,12,202,16*72
$GPGSV,3,3,10,19,10,081,18,50,,,*44
$GLGSV,2,1,08,85,65,312,28,75,62,264,27,84,37,045,30,74,31,185,21*6D
$GLGSV,2,2,08,76,30,324,23,86,20,258,18,68,14,030,,70,03,132,*6D
$GNRMC,005820.000,A,4434.1765,N,12316.5160,W,0.51,138.35,100518,,,A*6F
$GNGGA,005821.000,4434.1765,N,12316.5159,W,1,10,1.02,70.4,M,-21.0,M,,*7C
$GNGLL,4434.1765,N,12316.5159,W,005821.000,A,A*56
$GPGSA,A,3,05,06,25,02,29,12,,,,,,,1.33,1.02,0.85*03
$GLGSA,A,3,75,84,85,76,,,,,,,,,1.33,1.02,0.85*13
$GPGSV,3,1,11,12,74,154,12,02,70,064,19,25,58,303,26,29,31,280,23*7B
$GPGSV,3,2,11,05,28,141,32,06,27,049,19,31,14,320,12,24,12,202,16*73
$GPGSV,3,3,11,19,10,081,17,50,,,,13,,,18*41
$GLGSV,2,1,08,85,65,312,28,75,62,264,27,84,37,045,30,74,31,185,21*6D
$GLGSV,2,2,08,76,30,324,23,86,20,258,18,68,14,030,,70,03,132,*6D
$GNRMC,005821.000,A,4434.1765,N,12316.5159,W,0.46,5.09,100518,,,A*62
$GNGGA,005822.000,4434.1766,N,12316.5160,W,1,10,1.02,70.4,M,-21.0,M,,*76
$GNGLL,4434.1766,N,12316.5160,W,005822.000,A,A*5C
$GPGSA,A,3,05,06,25,02,29,12,,,,,,,1.33,1.02,0.85*03
$GLGSA,A,3,75,84,85,76,,,,,,,,,1.33,1.02,0.85*13
$GPGSV,3,1,11,12,74,154,13,02,70,064,19,25,58,303,26,29,31,280,23*7A
$GPGSV,3,2,11,05,28,141,32,06,27,049,19,31,14,320,13,24,12,202,16*72
$GPGSV,3,3,11,19,10,081,17,50,,,,13,,,17*4E
$GLGSV,2,1,08,85,65,312,28,75,62,264,27,84,37,045,30,74,31,185,22*6E
$GLGSV,2,2,08,76,30,324,23,86,20,258,18,68,14,029,,70,03,132,*65
$GNRMC,005822.000,A,4434.1766,N,12316.5160,W,0.40,334.35,100518,,,A*60
$GNGGA,005823.000,4434.1767,N,12316.5159,W,1,10,1.02,70.4,M,-21.0,M,,*7C
$GNGLL,4434.1767,N,12316.5159,W,005823.000,A,A*56
$GPGSA,A,3,05,06,25,02,29,12,,,,,,,1.33,1.02,0.85*03
$GLGSA,A,3,75,84,85,76,,,,,,,,,1.33,1.02,0.85*13
$GPGSV,3,1,11,12,74,154,13,02,70,064,19,25,58,303,26,29,31,280,23*7A
$GPGSV,3,2,11,05,28,141,31,06,27,049,19,31,14,320,13,24,12,202,16*71
$GPGSV,3,3,11,19,10,081,17,50,,,,13,,,17*4E
$GLGSV,2,1,08,85,65,312,27,75,62,264,26,84,37,045,29,74,31,185,22*68
$GLGSV,2,2,08,76,30,324,23,86,20,258,18,68,14,029,,70,03,132,*65
$GNRMC,005823.000,A,4434.1767,N,12316.5159,W,0.37,353.16,100518,,,A*6A
$GNGGA,005824.000,4434.1766,N,12316.5158,W,1,10,1.02,70.4,M,-21.0,M,,*7B
$GNGLL,4434.1766,N,12316.5158,W,005824.000,A,A*51
$GPGSA,A,3,05,06,25,02,29,12,,,,,,,1.33,1.02,0.85*03
$GLGSA,A,3,75,84,85,76,,,,,,,,,1.33,1.02,0.85*13
$GPGSV,3,1,11,12,74,154,13,02,70,064,19,25,58,303,27,29,31,280,24*7C
$GPGSV,3,2,11,05,28,141,32,06,27,049,19,31,14,320,12,24,12,202,16*73
$GPGSV,3,3,11,19,10,081,17,50,,,,13,,,18*41
$GLGSV,2,1,08,85,65,312,27,75,62,264,25,84,37,045,29,74,31,185,22*6B
$GLGSV,2,2,08,76,30,324,23,86,20,258,18,68,14,029,,70,04,131,*61
$GNRMC,005824.000,A,4434.1766,N,12316.5158,W,0.34,4.36,100518,,,A*6D
$GNGGA,005825.000,4434.1767,N,12316.5155,W,1,10,1.06,70.4,M,-21.0,M,,*72
$GNGLL,4434.1767,N,12316.5155,W,005825.000,A,A*5C
$GPGSA,A,3,05,06,25,02,29,12,,,,,,,1.37,1.06,0.87*01
$GLGSA,A,3,75,84,85,76,,,,,,,,,1.37,1.06,0.87*11
$GPGSV,3,1,11,12,74,154,12,02,70,064,19,25,58,303,27,29,31,280,24*7D
$GPGSV,3,2,11,05,28,141,32,06,27,049,19,31,14,320,,24,12,202,16*70
$GPGSV,3,3,11,19,10,081,17,50,,,,13,,,17*4E
$GLGSV,2,1,08,85,65,312,27,75,62,264,25,84,37,045,29,74,31,185,22*6B
$GLGSV,2,2,08,76,30,324,23,86,20,258,17,68,14,029,,70,04,131,*6E
$GNRMC,005825.000,A,4434.1767,N,12316.5155,W,0.34,57.19,100518,,,A*5B
$GNGGA,005826.000,4434.1767,N,12316.5156,W,1,10,1.06,70.4,M,-21.0,M,,*72
$GNGLL,4434.1767,N,12316.5156,W,005826.000,A,A*5C
$GPGSA,A,3,05,06,25,02,29,12,,,,,,,1.37,1.06,0.87*01
$GLGSA,A,3,75,84,85,76,,,,,,,,,1.37,1.06,0.87*11
$GPGSV,3,1,11,12,74,154,12,02,70,064,18,25,58,303,27,29,31,280,24*7C
$GPGSV,3,2,11,05,28,141,32,06,27,049,19,31,14,320,,24,12,202,16*70
$GPGSV,3,3,11,19,10,081,17,50,,,,13,,,17*4E
$GLGSV,2,1,08,85,65,312,27,75,62,264,25,84,37,045,29,74,31,185,22*6B
$GLGSV,2,2,08,76,30,324,23,86,20,258,16,68,14,029,,70,04,131,*6F
$GNRMC,005826.000,A,4434.1767,N,12316.5156,W,0.33,1.30,100518,,,A*64
$GNGGA,005827.000,4434.1768,N,12316.5154,W,1,10,1.06,70.4,M,-21.0,M,,*7E
$GNGLL,4434.1768,N,12316.5154,W,005827.000,A,A*50
$GPGSA,A,3,05,06,25,02,29,12,,,,,,,1.37,1.06,0.87*01
$GLGSA,A,3,75,84,85,76,,,,,,,,,1.37,1.06,0.87*11
$GPGSV,3,1,11,12,74,154,12,02,70,064,18,25,58,303,27,29,31,280,24*7C
$GPGSV,3,2,11,05,28,141,32,06,27,049,20,31,14,320,,24,12,202,16*7A
$GPGSV,3,3,11,19,10,081,17,42,,,,13,,,17*4D
$GLGSV,2,1,08,85,65,312,27,75,62,264,25,84,37,045,29,74,31,185,21*68
$GLGSV,2,2,08,76,30,324,23,86,20,258,16,68,14,029,,70,04,131,*6F
$GNRMC,005827.000,A,4434.1768,N,12316.5154,W,0.34,180.09,100518,,,A*6D
$GNGGA,005828.000,4434.1767,N,12316.5154,W,1,10,1.06,70.5,M,-21.0,M,,*7F
$GNGLL,4434.1767,N,12316.5154,W,005828.000,A,A*50
$GPGSA,A,3,05,06,25,02,29,12,,,,,,,1.37,1.06,0.87*01
$GLGSA,A,3,75,84,85,76,,,,,,,,,1.37,1.06,0.87*11
$GPGSV,3,1,11,12,74,154,11,02,70,064,18,25,58,303,27,29,31,280,24*7F
$GPGSV,3,2,11,05,28,141,32,06,27,049,20,31,14,320,,24,12,202,17*7B
$GPGSV,3,3,11,19,10,081,17,42,,,,13,,,17*4D
$GLGSV,2,1,08,85,65,312,27,75,62,264,26,84,37,045,29,76,30,324,23*63
$GLGSV,2,2,08,74,30,185,20,86,20,258,16,68,14,029,,70,04,131,*67
$GNRMC,005828.000,A,4434.1767,N,12316.5154,W,0.41,212.03,100518,,,A*6D
$GNGGA,005829.000,4434.1766,N,12316.5154,W,1,10,1.06,70.4,M,-21.0,M,,*7E
$GNGLL,4434.1766,N,12316.5154,W,005829.000,A,A*50
$GPGSA,A,3,05,06,25,02,29,12,,,,,,,1.37,1.06,0.87*01
$GLGSA,A,3,75,84,85,76,,,,,,,,,1.37,1.06,0.87*11
$GPGSV,3,1,11,12,74,154,11,02,70,064,18,25,58,303,27,29,31,280,24*7F
$GPGSV,3,2,11,05,28,141,32,06,27,049,20,31,14,320,,24,12,202,17*7B
$GPGSV,3,3,11,19,10,081,17,42,,,,13,,,17*4D
$GLGSV,2,1,08,85,65,312,27,75,62,262,26,84,37,045,29,76,30,324,23*65
$GLGSV,2,2,08,74,30,185,21,86,20,258,15,68,14,029,,70,04,131,*65
$GNRMC,005829.000,A,4434.1766,N,12316.5154,W,0.39,226.04,100518,,,A*62
$GNGGA,005830.000,4434.1764,N,12316.5155,W,1,9,1.06,70.5,M,-21.0,M,,*4C
$GNGLL,4434.1764,N,12316.5155,W,005830.000,A,A*5B
$GPGSA,A,3,05,06,25,02,29,,,,,,,,1.37,1.06,0.87*02
$GLGSA,A,3,75,84,85,76,,,,,,,,,1.37,1.06,0.87*11
$GPGSV,3,1,11,12,74,154,,02,70,064,18,25,58,303,27,29,31,280,24*7F
$GPGSV,3,2,11,05,28,141,32,06,27,049,20,31,14,320,,24,12,202,17*7B
$GPGSV,3,3,11,19,10,081,18,42,,,,13,,,17*42
$GLGSV,2,1,08,85,65,312,27,75,62,262,25,84,37,045,29,76,31,324,23*67
$GLGSV,2,2,08,74,30,185,21,86,20,258,15,68,14,029,,70,04,131,*65
$GNRMC,005830.000,A,4434.1764,N,12316.5155,W,0.43,207.73,100518,,,A*67
$GNGGA,005831.000,4434.1764,N,12316.5154,W,1,9,1.06,70.5,M,-21.0,M,,*4C
$GNGLL,4434.1764,N,12316.5154,W,005831.000,A,A*5B
$GPGSA,A,3,05,06,25,02,29,,,,,,,,1.37,1.06,0.87*02
$GLGSA,A,3,75,84,85,76,,,,,,,,,1.37,1.06,0.87*11
$GPGSV,3,1,11,12,74,154,,02,70,064,18,25,58,303,27,29,31,280,24*7F
$GPGSV,3,2,11,05,28,141,32,06,27,049,20,31,14,320,,24,12,202,16*7A
$GPGSV,3,3,11,19,10,081,18,42,,,,13,,,17*42
$GLGSV,2,1,08,85,65,312,27,75,62,262,25,84,37,045,29,76,31,324,23*67
$GLGSV,2,2,08,74,30,185,21,86,20,258,15,68,14,029,,70,04,131,*65
$GNRMC,005831.000,A,4434.1764,N,12316.5154,W,0.40,211.22,100518,,,A*67
$GNGGA,005832.000,4434.1762,N,12316.5155,W,1,9,1.06,70.5,M,-21.0,M,,*48
$GNGLL,4434.1762,N,12316.5155,W,005832.000,A,A*5F
$GPGSA,A,3,05,06,25,02,29,,,,,,,,1.37,1.06,0.87*02
$GLGSA,A,3,75,84,85,76,,,,,,,,,1.37,1.06,0.87*11
$GPGSV,3,1,11,12,74,154,,02,70,064,18,25,58,303,27,29,31,280,24*7F
$GPGSV,3,2,11,05,28,141,32,06,27,049,20,31,14,320,17,24,12,202,16*7C
$GPGSV,3,3,11,19,10,081,19,42,,,,13,,,17*43
$GLGSV,2,1,08,85,65,312,27,75,62,262,25,84,37,045,29,76,31,324,23*67
$GLGSV,2,2,08,74,30,185,21,86,20,258,15,68,14,029,,70,04,131,*65
$GNRMC,005832.000,A,4434.1762,N,12316.5155,W,0.40,213.09,100518,,,A*68
$GNGGA,005833.000,4434.1761,N,12316.5154,W,1,9,1.06,70.5,M,-21.0,M,,*4B
$GNGLL,4434.1761,N,12316.5154,W,005833.000,A,A*5C
$GPGSA,A,3,05,06,25,02,29,,,,,,,,1.37,1.06,0.87*02
$GLGSA,A,3,75,84,85,76,,,,,,,,,1.37,1.06,0.87*11
$GPGSV,3,1,11,12,74,154,,02,70,064,18,25,58,303,26,29,31,280,24*7E
$GPGSV,3,2,11,05,28,141,32,06,27,049,20,31,14,320,17,24,12,202,15*7F
$GPGSV,3,3,11,19,10,081,20,42,,,,13,,,17*49
$GLGSV,2,1,08,85,65,312,27,75,62,262,25,84,37,045,30,76,31,324,23*6F
$GLGSV,2,2,08,74,30,185,22,86,20,258,14,68,14,029,,70,04,131,*67
$GNRMC,005833.000,A,4434.1761,N,12316.5154,W,0.40,208.41,100518,,,A*6D
$GNGGA,005834.000,4434.1760,N,12316.5151,W,1,9,1.06,70.5,M,-21.0,M,,*48
$GNGLL,4434.1760,N,12316.5151,W,005834.000,A,A*5F
$GPGSA,A,3,05,06,25,02,29,,,,,,,,1.37,1.06,0.87*02
$GLGSA,A,3,75,84,85,76,,,,,,,,,1.37,1.06,0.87*11
$GPGSV,3,1,11,12,74,154,,02,70,064,18,25,58,303,26,29,31,280,24*7E
$GPGSV,3,2,11,05,28,141,32,06,27,049,20,31,14,320,18,24,12,202,15*70
$GPGSV,3,3,11,19,10,081,20,33,,,,13,,,17*4F
$GLGSV,2,1,08,85,65,312,27,75,62,262,25,84,37,045,30,76,31,324,23*6F
$GLGSV,2,2,08,74,30,185,21,86,20,258,,68,14,029,,70,04,131,*61
$GNRMC,005834.000,A,4434.1760,N,12316.5151,W,0.41,256.31,100518,,,A*63
$GNGGA,005835.000,4434.1755,N,12316.5148,W,1,9,1.06,70.4,M,-21.0,M,,*46
$GNGLL,4434.1755,N,12316.5148,W,005835.000,A,A*50
$GPGSA,A,3,05,06,25,02,29,,,,,,,,1.37,1.06,0.87*02
$GLGSA,A,3,75,84,85,76,,,,,,,,,1.37,1.06,0.87*11
$GPGSV,3,1,11,12,74,154,,02,70,064,18,25,58,303,26,29,31,280,23*79
$GPGSV,3,2,11,05,28,141,33,06,27,049,20,31,14,320,18,24,12,202,15*71
$GPGSV,3,3,11,19,10,081,20,33,,,,13,,,17*4F
$GLGSV,2,1,08,85,65,312,27,75,62,262,25,84,37,045,30,76,31,324,23*6F
$GLGSV,2,2,08,74,30,185,21,86,20,258,,68,14,029,,70,04,131,*61
$GNRMC,005835.000,A,4434.1755,N,12316.5148,W,0.40,190.51,100518,,,A*62
$GNGGA,005836.000,4434.1751,N,12316.5144,W,1,9,1.06,70.4,M,-21.0,M,,*4D
$GNGLL,4434.1751,N,12316.5144,W,005836.000,A,A*5B
$GPGSA,A,3,05,06,25,02,29,,,,,,,,1.37,1.06,0.87*02
$GLGSA,A,3,75,84,85,76,,,,,,,,,1.37,1.06,0.87*11
$GPGSV,3,1,11,12,74,154,,02,70,064,18,25,58,303,26,29,31,280,23*79
$GPGSV,3,2,11,05,28,141,33,06,27,049,20,31,14,320,19,24,12,202,15*70
$GPGSV,3,3,11,19,10,081,20,33,,,,13,,,17*4F
$GLGSV,2,1,08,85,65,312,26,75,62,262,26,84,37,045,30,76,31,324,22*6C
$GLGSV,2,2,08,74,30,185,21,86,20,258,,68,14,029,,70,04,131,*61
$GNRMC,005836.000,A,4434.1751,N,12316.5144,W,0.52,162.22,100518,,,A*63
$GNGGA,005837.000,4434.1747,N,12316.5139,W,1,9,1.06,70.4,M,-21.0,M,,*41
$GNGLL,4434.1747,N,12316.5139,W,005837.000,A,A*57
$GPGSA,A,3,05,06,25,02,29,,,,,,,,1.37,1.06,0.87*02
$GLGSA,A,3,75,84,85,76,,,,,,,,,1.37,1.06,0.87*11
$GPGSV,3,1,11,12,74,154,,02,70,064,18,25,58,303,26,29,31,280,24*7E
$GPGSV,3,2,11,05,28,141,33,06,27,049,20,31,14,320,19,24,12,202,14*71
$GPGSV,3,3,11,19,10,081,20,33,,,,13,,,17*4F
$GLGSV,2,1,08,85,65,312,26,75,62,262,26,84,37,045,31,76,31,324,21*6E
$GLGSV,2,2,08,74,30,185,22,86,20,258,,68,14,029,,70,04,131,*62
$GNRMC,005837.000,A,4434.1747,N,12316.5139,W,0.58,170.44,100518,,,A*66
$GNGGA,005838.000,4434.1744,N,12316.5138,W,1,8,1.85,70.5,M,-21.0,M,,*47
$GNGLL,4434.1744,N,12316.5138,W,005838.000,A,A*5A
$GPGSA,A,3,06,25,02,29,,,,,,,,,2.07,1.85,0.93*09
$GLGSA,A,3,75,84,85,76,,,,,,,,,2.07,1.85,0.93*1F
$GPGSV,3,1,11,12,74,154,,02,70,064,18,25,58,303,25,29,31,280,24*7D
$GPGSV,3,2,11,05,28,141,31,06,27,049,20,31,14,320,19,24,12,202,14*73
$GPGSV,3,3,11,19,10,081,20,33,,,,13,,,17*4F
$GLGSV,2,1,08,85,65,312,26,75,62,262,25,84,36,046,30,76,31,324,20*6F
$GLGSV,2,2,08,74,30,185,22,86,20,258,,68,14,029,,70,04,131,*62
$GNRMC,005838.000,A,4434.1744,N,12316.5138,W,0.59,175.34,100518,,,A*68
$GNGGA,005839.000,4434.1741,N,12316.5136,W,1,9,1.06,70.5,M,-21.0,M,,*47
$GNGLL,4434.1741,N,12316.5136,W,005839.000,A,A*50
$GPGSA,A,3,05,06,25,02,29,,,,,,,,1.37,1.06,0.87*02
$GLGSA,A,3,75,84,85,76,,,,,,,,,1.37,1.06,0.87*11
$GPGSV,3,1,11,12,74,154,,02,70,064,18,25,58,303,25,29,31,280,24*7D
$GPGSV,3,2,11,05,28,141,32,06,27,049,20,31,14,320,18,24,12,202,14*71
$GPGSV,3,3,11,19,10,081,20,33,,,,13,,,17*4F
$GLGSV,2,1,08,85,65,315,26,75,62,262,25,84,36,046,30,76,31,324,20*68
$GLGSV,2,2,08,74,30,185,22,86,20,258,14,68,14,029,,70,04,131,*67
$GNRMC,005839.000,A,4434.1741,N,12316.5136,W,0.65,177.94,100518,,,A*65
$GNGGA,005840.000,4434.1739,N,12316.5134,W,1,9,1.06,70.5,M,-21.0,M,,*44
$GNGLL,4434.1739,N,12316.5134,W,005840.000,A,A*53
$GPGSA,A,3,05,06,25,02,29,,,,,,,,1.37,1.06,0.87*02
$GLGSA,A,3,75,84,85,76,,,,,,,,,1.37,1.06,0.87*11
$GPGSV,3,1,11,12,74,154,,02,70,064,18,25,58,303,25,29,31,280,24*7D
$GPGSV,3,2,11,05,28,141,32,06,27,049,19,31,14,320,18,24,12,202,14*7B
$GPGSV,3,3,11,19,10,081,20,37,,,,13,,,17*4B
$GLGSV,2,1,08,85,65,315,26,75,62,262,25,84,36,046,30,76,31,324,20*68
$GLGSV,2,2,08,74,30,185,22,86,21,259,15,68,14,029,,70,04,131,*66
$GNRMC,005840.000,A,4434.1739,N,12316.5134,W,0.67,172.12,100518,,,A*6F
$GNGGA,005841.000,4434.1735,N,12316.5135,W,1,9,1.06,70.5,M,-21.0,M,,*48
$GNGLL,4434.1735,N,12316.5135,W,005841.000,A,A*5F
$GPGSA,A,3,05,06,25,02,29,,,,,,,,1.37,1.06,0.87*02
$GLGSA,A,3,75,84,85,76,,,,,,,,,1.37,1.06,0.87*11
$GPGSV,3,1,11,12,74,154,,02,70,064,18,25,58,303,25,29,31,280,24*7D
$GPGSV,3,2,11,05,28,141,32,06,27,049,18,31,14,320,16,24,12,202,13*73
$GPGSV,3,3,11,19,10,081,20,37,,,,13,,,17*4B
$GLGSV,2,1,08,85,65,315,26,75,62,262,25,84,36,046,30,76,31,324,20*68
$GLGSV,2,2,08,74,30,185,22,86,21,259,15,68,14,029,,70,04,131,*66
$GNRMC,005841.000,A,4434.1735,N,12316.5135,W,0.73,190.05,100518,,,A*6C
$GNGGA,005842.000,4434.1736,N,12316.5133,W,1,9,1.06,70.5,M,-21.0,M,,*4E
$GNGLL,4434.1736,N,12316.5133,W,005842.000,A,A*59
$GPGSA,A,3,05,06,25,02,29,,,,,,,,1.37,1.06,0.87*02
$GLGSA,A,3,75,84,85,76,,,,,,,,,1.37,1.06,0.87*11
$GPGSV,3,1,11,12,74,154,,02,70,064,18,25,58,303,25,29,31,280,24*7D
$GPGSV,3,2,11,05,28,141,32,06,27,049,18,31,14,320,16,24,12,202,13*73
$GPGSV,3,3,11,19,10,081,20,37,,,,13,,,17*4B
$GLGSV,2,1,08,85,65,315,26,75,62,262,25,84,36,046,31,76,31,324,20*69
$GLGSV,2,2,08,74,30,185,22,86,21,259,15,68,14,029,,70,04,131,*66
$GNRMC,005842.000,A,4434.1736,N,12316.5133,W,0.75,176.64,100518,,,A*63
$GNGGA,005843.000,4434.1736,N,12316.5134,W,1,9,1.06,70.6,M,-21.0,M,,*4B
$GNGLL,4434.1736,N,12316.5134,W,005843.000,A,A*5F
$GPGSA,A,3,05,06,25,02,29,,,,,,,,1.37,1.06,0.87*02
$GLGSA,A,3,75,84,85,76,,,,,,,,,1.37,1.06,0.87*11
$GPGSV,3,1,11,12,74,154,,02,70,064,18,25,58,303,25,29,31,280,24*7D
$GPGSV,3,2,11,05,28,141,33,06,27,049,18,31,14,320,16,24,12,202,13*72
$GPGSV,3,3,11,19,10,081,19,37,,,,13,,,17*41
$GLGSV,2,1,08,85,65,315,26,75,62,262,25,84,36,046,31,76,31,324,20*69
$GLGSV,2,2,08,74,30,185,22,86,21,259,15,68,14,029,,70,04,131,*66
$GNRMC,005843.000,A,4434.1736,N,12316.5134,W,0.76,180.42,100518,,,A*6B
$GNGGA,005844.000,4434.1736,N,12316.5138,W,1,9,1.06,70.6,M,-21.0,M,,*40
$GNGLL,4434.1736,N,12316.5138,W,005844.000,A,A*54
$GPGSA,A,3,05,06,25,02,29,,,,,,,,1.37,1.06,0.87*02
$GLGSA,A,3,75,84,85,76,,,,,,,,,1.37,1.06,0.87*11
$GPGSV,3,1,11,12,74,154,,02,70,064,18,25,58,303,25,29,31,280,24*7D
$GPGSV,3,2,11,05,28,141,33,06,27,049,18,31,14,320,17,24,12,202,13*73
$GPGSV,3,3,11,19,10,081,19,37,,,,13,,,17*41
$GLGSV,2,1,08,85,65,315,26,75,62,262,25,84,36,046,31,76,31,324,20*69
$GLGSV,2,2,08,74,30,185,21,86,21,259,15,68,14,029,,70,04,131,*65
$GNRMC,005844.000,A,4434.1736,N,12316.5138,W,0.77,200.31,100518,,,A*6E
$GNGGA,005845.000,4434.1737,N,12316.5143,W,1,9,1.06,70.6,M,-21.0,M,,*4C
$GNGLL,4434.1737,N,12316.5143,W,005845.000,A,A*58
$GPGSA,A,3,05,06,25,02,29,,,,,,,,1.37,1.06,0.87*02
$GLGSA,A,3,75,84,85,76,,,,,,,,,1.37,1.06,0.87*11
$GPGSV,3,1,11,12,74,154,,02,70,064,17,25,58,303,25,29,31,280,24*72
$GPGSV,3,2,11,05,28,141,33,06,27,049,18,31,14,320,17,24,12,202,12*72
$GPGSV,3,3,11,19,10,081,19,37,,,,13,,,17*41
$GLGSV,2,1,08,85,65,315,26,75,62,262,25,84,36,046,31,76,31,324,20*69
$GLGSV,2,2,08,74,30,185,21,86,21,259,15,68,14,029,,70,04,131,*65
$GNRMC,005845.000,A,4434.1737,N,12316.5143,W,0.77,262.02,100518,,,A*66
$GNGGA,005846.000,4434.1736,N,12316.5144,W,1,9,1.06,70.6,M,-21.0,M,,*49
$GNGLL,4434.1736,N,12316.5144,W,005846.000,A,A*5D
$GPGSA,A,3,05,06,25,02,29,,,,,,,,1.37,1.06,0.87*02
$GLGSA,A,3,75,84,85,76,,,,,,,,,1.37,1.06,0.87*11
$GPGSV,3,1,11,12,74,154,,02,70,064,17,25,58,303,25,29,31,280,24*72
$GPGSV,3,2,11,05,28,141,33,06,27,049,18,31,14,320,17,24,12,202,12*72
$GPGSV,3,3,11,19,10,081,19,39,,,,13,,,17*4F
$GLGSV,2,1,08,85,65,315,27,75,62,262,25,84,36,046,31,76,31,324,19*62
$GLGSV,2,2,08,74,30,185,20,86,21,259,16,68,14,029,,70,04,131,*67
$GNRMC,005846.000,A,4434.1736,N,12316.5144,W,0.68,221.23,100518,,,A*69
$GNGGA,005847.000,4434.1737,N,12316.5146,W,1,9,1.06,70.6,M,-21.0,M,,*4B
$GNGLL,4434.1737,N,12316.5146,W,005847.000,A,A*5F
$GPGSA,A,3,05,06,25,02,29,,,,,,,,1.37,1.06,0.87*02
$GLGSA,A,3,75,84,85,76,,,,,,,,,1.37,1.06,0.87*11
$GPGSV,3,1,11,12,74,154,,02,70,064,17,25,58,303,25,29,31,280,23*75
$GPGSV,3,2,11,05,28,141,33,06,27,049,18,31,14,320,17,24,12,202,12*72
$GPGSV,3,3,11,19,10,081,19,39,,,,13,,,17*4F
$GLGSV,2,1,08,85,65,315,27,75,62,262,25,84,36,046,31,76,31,324,19*62
$GLGSV,2,2,08,74,30,185,20,86,21,259,16,68,14,029,,70,04,131,*67
$GNRMC,005847.000,A,4434.1737,N,12316.5146,W,0.62,220.26,100518,,,A*65
$GNGGA,005848.000,4434.1739,N,12316.5146,W,1,9,1.06,70.7,M,-21.0,M,,*4B
$GNGLL,4434.1739,N,12316.5146,W,005848.000,A,A*5E
$GPGSA,A,3,05,06,25,02,29,,,,,,,,1.37,1.06,0.87*02
$GLGSA,A,3,75,84,85,76,,,,,,,,,1.37,1.06,0.87*11
$GPGSV,3,1,11,12,74,154,,02,70,064,17,25,58,303,25,29,31,280,23*75
$GPGSV,3,2,11,05,28,141,33,06,27,049,18,31,14,320,17,24,12,202,*71
$GPGSV,3,3,11,19,10,081,19,39,,,,13,,,17*4F
$GLGSV,2,1,08,85,65,315,27,75,62,262,25,84,36,046,31,76,31,324,19*62
$GLGSV,2,2,08,74,30,185,21,86,21,259,16,68,14,029,,70,04,131,*66
$GNRMC,005848.000,A,4434.1739,N,12316.5146,W,0.56,95.83,100518,,,A*50
$GNGGA,005849.000,4434.1741,N,12316.5144,W,1,9,1.06,70.7,M,-21.0,M,,*47
$GNGLL,4434.1741,N,12316.5144,W,005849.000,A,A*52
$GPGSA,A,3,05,06,25,02,29,,,,,,,,1.37,1.06,0.87*02
$GLGSA,A,3,75,84,85,76,,,,,,,,,1.37,1.06,0.87*11
$GPGSV,3,1,11,12,74,154,,02,70,064,18,25,58,303,25,29,31,280,23*7A
$GPGSV,3,2,11,05,28,141,33,06,27,049,18,31,14,320,17,24,12,202,*71
$GPGSV,3,3,11,19,10,081,19,39,,,,13,,,17*4F
$GLGSV,2,1,08,85,65,315,27,75,62,262,25,84,36,046,31,76,31,324,19*62
$GLGSV,2,2,08,74,30,185,21,86,21,259,16,68,14,029,,70,04,131,*66
$GNRMC,005849.000,A,4434.1741,N,12316.5144,W,0.53,77.16,100518,,,A*59
$GNGGA,005850.000,4434.1742,N,12316.5143,W,1,9,1.06,70.7,M,-21.0,M,,*4B
$GNGLL,4434.1742,N,12316.5143,W,005850.000,A,A*5E
$GPGSA,A,3,05,06,25,02,29,,,,,,,,1.37,1.06,0.87*02
$GLGSA,A,3,75,84,85,76,,,,,,,,,1.37,1.06,0.87*11
$GPGSV,3,1,11,12,74,154,,02,70,064,18,25,58,303,25,29,31,280,23*7A
